$GPGGA,171900.656,4851.093,N,00221.147,E,1,12,1.0,0.0,M,0.0,M,,*64
$GPGSA,A,3,01,02,03,04,05,06,07,08,09,10,11,12,1.0,1.0,1.0*30
$GPRMC,171900.656,A,4851.093,N,00221.147,E,023.3,042.8,220518,000.0,W*70
$GPGGA,171901.656,4851.099,N,00221.152,E,1,12,1.0,0.0,M,0.0,M,,*6B
$GPGSA,A,3,01,02,03,04,05,06,07,08,09,10,11,12,1.0,1.0,1.0*30
$GPRMC,171901.656,A,4851.099,N,00221.152,E,023.3,042.8,220518,000.0,W*7F
$GPGGA,171902.656,4851.104,N,00221.158,E,1,12,1.0,0.0,M,0.0,M,,*67
$GPGSA,A,3,01,02,03,04,05,06,07,08,09,10,11,12,1.0,1.0,1.0*30
$GPRMC,171902.656,A,4851.104,N,00221.158,E,023.3,042.8,220518,000.0,W*73
$GPGGA,171903.656,4851.110,N,00221.163,E,1,12,1.0,0.0,M,0.0,M,,*6B
$GPGSA,A,3,01,02,03,04,05,06,07,08,09,10,11,12,1.0,1.0,1.0*30
$GPRMC,171903.656,A,4851.110,N,00221.163,E,023.3,042.8,220518,000.0,W*7F
$GPGGA,171904.656,4851.116,N,00221.168,E,1,12,1.0,0.0,M,0.0,M,,*61
$GPGSA,A,3,01,02,03,04,05,06,07,08,09,10,11,12,1.0,1.0,1.0*30
$GPRMC,171904.656,A,4851.116,N,00221.168,E,023.3,042.8,220518,000.0,W*75
$GPGGA,171905.656,4851.121,N,00221.173,E,1,12,1.0,0.0,M,0.0,M,,*6E
$GPGSA,A,3,01,02,03,04,05,06,07,08,09,10,11,12,1.0,1.0,1.0*30
$GPRMC,171905.656,A,4851.121,N,00221.173,E,023.3,042.8,220518,000.0,W*7A
$GPGGA,171906.656,4851.127,N,00221.178,E,1,12,1.0,0.0,M,0.0,M,,*60
$GPGSA,A,3,01,02,03,04,05,06,07,08,09,10,11,12,1.0,1.0,1.0*30
$GPRMC,171906.656,A,4851.127,N,00221.178,E,023.3,042.8,220518,000.0,W*74
$GPGGA,171907.656,4851.132,N,00221.183,E,1,12,1.0,0.0,M,0.0,M,,*61
$GPGSA,A,3,01,02,03,04,05,06,07,08,09,10,11,12,1.0,1.0,1.0*30
$GPRMC,171907.656,A,4851.132,N,00221.183,E,023.3,042.8,220518,000.0,W*75
$GPGGA,171908.656,4851.138,N,00221.188,E,1,12,1.0,0.0,M,0.0,M,,*6F
$GPGSA,A,3,01,02,03,04,05,06,07,08,09,10,11,12,1.0,1.0,1.0*30
$GPRMC,171908.656,A,4851.138,N,00221.188,E,023.3,042.8,220518,000.0,W*7B
$GPGGA,171909.656,4851.143,N,00221.194,E,1,12,1.0,0.0,M,0.0,M,,*6F
$GPGSA,A,3,01,02,03,04,05,06,07,08,09,10,11,12,1.0,1.0,1.0*30
$GPRMC,171909.656,A,4851.143,N,00221.194,E,023.3,042.8,220518,000.0,W*7B
$GPGGA,171910.656,4851.149,N,00221.199,E,1,12,1.0,0.0,M,0.0,M,,*60
$GPGSA,A,3,01,02,03,04,05,06,07,08,09,10,11,12,1.0,1.0,1.0*30
$GPRMC,171910.656,A,4851.149,N,00221.199,E,023.3,042.8,220518,000.0,W*74
$GPGGA,171911.656,4851.154,N,00221.204,E,1,12,1.0,0.0,M,0.0,M,,*6A
$GPGSA,A,3,01,02,03,04,05,06,07,08,09,10,11,12,1.0,1.0,1.0*30
$GPRMC,171911.656,A,4851.154,N,00221.204,E,023.3,042.8,220518,000.0,W*7E
$GPGGA,171912.656,4851.160,N,00221.209,E,1,12,1.0,0.0,M,0.0,M,,*63
$GPGSA,A,3,01,02,03,04,05,06,07,08,09,10,11,12,1.0,1.0,1.0*30
$GPRMC,171912.656,A,4851.160,N,00221.209,E,023.3,042.8,220518,000.0,W*77
$GPGGA,171913.656,4851.165,N,00221.214,E,1,12,1.0,0.0,M,0.0,M,,*6B
$GPGSA,A,3,01,02,03,04,05,06,07,08,09,10,11,12,1.0,1.0,1.0*30
$GPRMC,171913.656,A,4851.165,N,00221.214,E,023.3,042.8,220518,000.0,W*7F
$GPGGA,171914.656,4851.171,N,00221.219,E,1,12,1.0,0.0,M,0.0,M,,*64
$GPGSA,A,3,01,02,03,04,05,06,07,08,09,10,11,12,1.0,1.0,1.0*30
$GPRMC,171914.656,A,4851.171,N,00221.219,E,023.3,042.8,220518,000.0,W*70
$GPGGA,171915.656,4851.176,N,00221.224,E,1,12,1.0,0.0,M,0.0,M,,*6C
$GPGSA,A,3,01,02,03,04,05,06,07,08,09,10,11,12,1.0,1.0,1.0*30
$GPRMC,171915.656,A,4851.176,N,00221.224,E,023.3,042.8,220518,000.0,W*78
$GPGGA,171916.656,4851.182,N,00221.229,E,1,12,1.0,0.0,M,0.0,M,,*69
$GPGSA,A,3,01,02,03,04,05,06,07,08,09,10,11,12,1.0,1.0,1.0*30
$GPRMC,171916.656,A,4851.182,N,00221.229,E,023.3,042.8,220518,000.0,W*7D
$GPGGA,171917.656,4851.187,N,00221.235,E,1,12,1.0,0.0,M,0.0,M,,*60
$GPGSA,A,3,01,02,03,04,05,06,07,08,09,10,11,12,1.0,1.0,1.0*30
$GPRMC,171917.656,A,4851.187,N,00221.235,E,023.3,042.8,220518,000.0,W*74
$GPGGA,171918.656,4851.193,N,00221.240,E,1,12,1.0,0.0,M,0.0,M,,*68
$GPGSA,A,3,01,02,03,04,05,06,07,08,09,10,11,12,1.0,1.0,1.0*30
$GPRMC,171918.656,A,4851.193,N,00221.240,E,023.3,042.8,220518,000.0,W*7C
$GPGGA,171919.656,4851.198,N,00221.245,E,1,12,1.0,0.0,M,0.0,M,,*67
$GPGSA,A,3,01,02,03,04,05,06,07,08,09,10,11,12,1.0,1.0,1.0*30
$GPRMC,171919.656,A,4851.198,N,00221.245,E,023.3,042.8,220518,000.0,W*73
$GPGGA,171920.656,4851.204,N,00221.250,E,1,12,1.0,0.0,M,0.0,M,,*6F
$GPGSA,A,3,01,02,03,04,05,06,07,08,09,10,11,12,1.0,1.0,1.0*30
$GPRMC,171920.656,A,4851.204,N,00221.250,E,023.3,042.8,220518,000.0,W*7B
$GPGGA,171921.656,4851.209,N,00221.255,E,1,12,1.0,0.0,M,0.0,M,,*66
$GPGSA,A,3,01,02,03,04,05,06,07,08,09,10,11,12,1.0,1.0,1.0*30
$GPRMC,171921.656,A,4851.209,N,00221.255,E,023.3,042.8,220518,000.0,W*72
$GPGGA,171922.656,4851.215,N,00221.260,E,1,12,1.0,0.0,M,0.0,M,,*6E
$GPGSA,A,3,01,02,03,04,05,06,07,08,09,10,11,12,1.0,1.0,1.0*30
$GPRMC,171922.656,A,4851.215,N,00221.260,E,023.3,042.8,220518,000.0,W*7A
$GPGGA,171923.656,4851.221,N,00221.265,E,1,12,1.0,0.0,M,0.0,M,,*6D
$GPGSA,A,3,01,02,03,04,05,06,07,08,09,10,11,12,1.0,1.0,1.0*30
$GPRMC,171923.656,A,4851.221,N,00221.265,E,023.3,042.8,220518,000.0,W*79
$GPGGA,171924.656,4851.226,N,00221.271,E,1,12,1.0,0.0,M,0.0,M,,*68
$GPGSA,A,3,01,02,03,04,05,06,07,08,09,10,11,12,1.0,1.0,1.0*30
$GPRMC,171924.656,A,4851.226,N,00221.271,E,023.3,042.8,220518,000.0,W*7C
$GPGGA,171925.656,4851.232,N,00221.276,E,1,12,1.0,0.0,M,0.0,M,,*6B
$GPGSA,A,3,01,02,03,04,05,06,07,08,09,10,11,12,1.0,1.0,1.0*30
$GPRMC,171925.656,A,4851.232,N,00221.276,E,023.3,042.8,220518,000.0,W*7F
$GPGGA,171926.656,4851.237,N,00221.281,E,1,12,1.0,0.0,M,0.0,M,,*65
$GPGSA,A,3,01,02,03,04,05,06,07,08,09,10,11,12,1.0,1.0,1.0*30
$GPRMC,171926.656,A,4851.237,N,00221.281,E,023.3,042.8,220518,000.0,W*71
$GPGGA,171927.656,4851.243,N,00221.286,E,1,12,1.0,0.0,M,0.0,M,,*60
$GPGSA,A,3,01,02,03,04,05,06,07,08,09,10,11,12,1.0,1.0,1.0*30
$GPRMC,171927.656,A,4851.243,N,00221.286,E,023.3,042.8,220518,000.0,W*74
$GPGGA,171928.656,4851.248,N,00221.291,E,1,12,1.0,0.0,M,0.0,M,,*62
$GPGSA,A,3,01,02,03,04,05,06,07,08,09,10,11,12,1.0,1.0,1.0*30
$GPRMC,171928.656,A,4851.248,N,00221.291,E,023.3,042.8,220518,000.0,W*76
$GPGGA,171929.656,4851.254,N,00221.296,E,1,12,1.0,0.0,M,0.0,M,,*69
$GPGSA,A,3,01,02,03,04,05,06,07,08,09,10,11,12,1.0,1.0,1.0*30
$GPRMC,171929.656,A,4851.254,N,00221.296,E,023.3,042.8,220518,000.0,W*7D
$GPGGA,171930.656,4851.259,N,00221.301,E,1,12,1.0,0.0,M,0.0,M,,*63
$GPGSA,A,3,01,02,03,04,05,06,07,08,09,10,11,12,1.0,1.0,1.0*30
$GPRMC,171930.656,A,4851.259,N,00221.301,E,023.3,042.8,220518,000.0,W*77
$GPGGA,171931.656,4851.265,N,00221.306,E,1,12,1.0,0.0,M,0.0,M,,*6A
$GPGSA,A,3,01,02,03,04,05,06,07,08,09,10,11,12,1.0,1.0,1.0*30
$GPRMC,171931.656,A,4851.265,N,00221.306,E,023.3,042.8,220518,000.0,W*7E
$GPGGA,171932.656,4851.270,N,00221.312,E,1,12,1.0,0.0,M,0.0,M,,*68
$GPGSA,A,3,01,02,03,04,05,06,07,08,09,10,11,12,1.0,1.0,1.0*30
$GPRMC,171932.656,A,4851.270,N,00221.312,E,023.3,042.8,220518,000.0,W*7C
$GPGGA,171933.656,4851.276,N,00221.317,E,1,12,1.0,0.0,M,0.0,M,,*6A
$GPGSA,A,3,01,02,03,04,05,06,07,08,09,10,11,12,1.0,1.0,1.0*30
$GPRMC,171933.656,A,4851.276,N,00221.317,E,023.3,042.8,220518,000.0,W*7E
$GPGGA,171934.656,4851.281,N,00221.322,E,1,12,1.0,0.0,M,0.0,M,,*63
$GPGSA,A,3,01,02,03,04,05,06,07,08,09,10,11,12,1.0,1.0,1.0*30
$GPRMC,171934.656,A,4851.281,N,00221.322,E,023.3,042.8,220518,000.0,W*77
$GPGGA,171935.656,4851.287,N,00221.327,E,1,12,1.0,0.0,M,0.0,M,,*61
$GPGSA,A,3,01,02,03,04,05,06,07,08,09,10,11,12,1.0,1.0,1.0*30
$GPRMC,171935.656,A,4851.287,N,00221.327,E,023.3,042.8,220518,000.0,W*75
$GPGGA,171936.656,4851.292,N,00221.332,E,1,12,1.0,0.0,M,0.0,M,,*62
$GPGSA,A,3,01,02,03,04,05,06,07,08,09,10,11,12,1.0,1.0,1.0*30
$GPRMC,171936.656,A,4851.292,N,00221.332,E,023.3,042.8,220518,000.0,W*76
$GPGGA,171937.656,4851.298,N,00221.337,E,1,12,1.0,0.0,M,0.0,M,,*6C
$GPGSA,A,3,01,02,03,04,05,06,07,08,09,10,11,12,1.0,1.0,1.0*30
$GPRMC,171937.656,A,4851.298,N,00221.337,E,023.3,042.8,220518,000.0,W*78
$GPGGA,171938.656,4851.303,N,00221.342,E,1,12,1.0,0.0,M,0.0,M,,*62
$GPGSA,A,3,01,02,03,04,05,06,07,08,09,10,11,12,1.0,1.0,1.0*30
$GPRMC,171938.656,A,4851.303,N,00221.342,E,023.3,042.8,220518,000.0,W*76
$GPGGA,171939.656,4851.309,N,00221.347,E,1,12,1.0,0.0,M,0.0,M,,*6C
$GPGSA,A,3,01,02,03,04,05,06,07,08,09,10,11,12,1.0,1.0,1.0*30
$GPRMC,171939.656,A,4851.309,N,00221.347,E,023.3,042.8,220518,000.0,W*78
$GPGGA,171940.656,4851.314,N,00221.353,E,1,12,1.0,0.0,M,0.0,M,,*6B
$GPGSA,A,3,01,02,03,04,05,06,07,08,09,10,11,12,1.0,1.0,1.0*30
$GPRMC,171940.656,A,4851.314,N,00221.353,E,023.3,042.8,220518,000.0,W*7F
$GPGGA,171941.656,4851.320,N,00221.358,E,1,12,1.0,0.0,M,0.0,M,,*66
$GPGSA,A,3,01,02,03,04,05,06,07,08,09,10,11,12,1.0,1.0,1.0*30
$GPRMC,171941.656,A,4851.320,N,00221.358,E,023.3,042.8,220518,000.0,W*72
$GPGGA,171942.656,4851.325,N,00221.363,E,1,12,1.0,0.0,M,0.0,M,,*68
$GPGSA,A,3,01,02,03,04,05,06,07,08,09,10,11,12,1.0,1.0,1.0*30
$GPRMC,171942.656,A,4851.325,N,00221.363,E,023.3,042.8,220518,000.0,W*7C
$GPGGA,171943.656,4851.331,N,00221.368,E,1,12,1.0,0.0,M,0.0,M,,*67
$GPGSA,A,3,01,02,03,04,05,06,07,08,09,10,11,12,1.0,1.0,1.0*30
$GPRMC,171943.656,A,4851.331,N,00221.368,E,023.3,042.8,220518,000.0,W*73
$GPGGA,171944.656,4851.337,N,00221.373,E,1,12,1.0,0.0,M,0.0,M,,*6C
$GPGSA,A,3,01,02,03,04,05,06,07,08,09,10,11,12,1.0,1.0,1.0*30
$GPRMC,171944.656,A,4851.337,N,00221.373,E,023.3,042.8,220518,000.0,W*78
$GPGGA,171945.656,4851.342,N,00221.378,E,1,12,1.0,0.0,M,0.0,M,,*64
$GPGSA,A,3,01,02,03,04,05,06,07,08,09,10,11,12,1.0,1.0,1.0*30
$GPRMC,171945.656,A,4851.342,N,00221.378,E,023.3,042.8,220518,000.0,W*70
$GPGGA,171946.656,4851.348,N,00221.383,E,1,12,1.0,0.0,M,0.0,M,,*69
$GPGSA,A,3,01,02,03,04,05,06,07,08,09,10,11,12,1.0,1.0,1.0*30
$GPRMC,171946.656,A,4851.348,N,00221.383,E,023.3,042.8,220518,000.0,W*7D
$GPGGA,171947.656,4851.353,N,00221.389,E,1,12,1.0,0.0,M,0.0,M,,*68
$GPGSA,A,3,01,02,03,04,05,06,07,08,09,10,11,12,1.0,1.0,1.0*30
$GPRMC,171947.656,A,4851.353,N,00221.389,E,023.3,042.8,220518,000.0,W*7C
$GPGGA,171948.656,4851.359,N,00221.394,E,1,12,1.0,0.0,M,0.0,M,,*61
$GPGSA,A,3,01,02,03,04,05,06,07,08,09,10,11,12,1.0,1.0,1.0*30
$GPRMC,171948.656,A,4851.359,N,00221.394,E,023.3,042.8,220518,000.0,W*75
$GPGGA,171949.656,4851.364,N,00221.399,E,1,12,1.0,0.0,M,0.0,M,,*63
$GPGSA,A,3,01,02,03,04,05,06,07,08,09,10,11,12,1.0,1.0,1.0*30
$GPRMC,171949.656,A,4851.364,N,00221.399,E,023.3,042.8,220518,000.0,W*77
$GPGGA,171950.656,4851.370,N,00221.404,E,1,12,1.0,0.0,M,0.0,M,,*6D
$GPGSA,A,3,01,02,03,04,05,06,07,08,09,10,11,12,1.0,1.0,1.0*30
$GPRMC,171950.656,A,4851.370,N,00221.404,E,023.3,042.8,220518,000.0,W*79
$GPGGA,171951.656,4851.375,N,00221.409,E,1,12,1.0,0.0,M,0.0,M,,*64
$GPGSA,A,3,01,02,03,04,05,06,07,08,09,10,11,12,1.0,1.0,1.0*30
$GPRMC,171951.656,A,4851.375,N,00221.409,E,023.3,042.8,220518,000.0,W*70
$GPGGA,171952.656,4851.381,N,00221.414,E,1,12,1.0,0.0,M,0.0,M,,*60
$GPGSA,A,3,01,02,03,04,05,06,07,08,09,10,11,12,1.0,1.0,1.0*30
$GPRMC,171952.656,A,4851.381,N,00221.414,E,023.3,042.8,220518,000.0,W*74
$GPGGA,171953.656,4851.386,N,00221.419,E,1,12,1.0,0.0,M,0.0,M,,*6B
$GPGSA,A,3,01,02,03,04,05,06,07,08,09,10,11,12,1.0,1.0,1.0*30
$GPRMC,171953.656,A,4851.386,N,00221.419,E,023.3,042.8,220518,000.0,W*7F
$GPGGA,171954.656,4851.392,N,00221.424,E,1,12,1.0,0.0,M,0.0,M,,*67
$GPGSA,A,3,01,02,03,04,05,06,07,08,09,10,11,12,1.0,1.0,1.0*30
$GPRMC,171954.656,A,4851.392,N,00221.424,E,023.3,042.8,220518,000.0,W*73
$GPGGA,171955.656,4851.397,N,00221.430,E,1,12,1.0,0.0,M,0.0,M,,*66
$GPGSA,A,3,01,02,03,04,05,06,07,08,09,10,11,12,1.0,1.0,1.0*30
$GPRMC,171955.656,A,4851.397,N,00221.430,E,023.3,287.3,220518,000.0,W*72
$GPGGA,171956.656,4851.400,N,00221.421,E,1,12,1.0,0.0,M,0.0,M,,*6C
$GPGSA,A,3,01,02,03,04,05,06,07,08,09,10,11,12,1.0,1.0,1.0*30
$GPRMC,171956.656,A,4851.400,N,00221.421,E,023.3,287.3,220518,000.0,W*78
$GPGGA,171957.656,4851.403,N,00221.412,E,1,12,1.0,0.0,M,0.0,M,,*6E
$GPGSA,A,3,01,02,03,04,05,06,07,08,09,10,11,12,1.0,1.0,1.0*30
$GPRMC,171957.656,A,4851.403,N,00221.412,E,023.3,287.3,220518,000.0,W*7A
$GPGGA,171958.656,4851.406,N,00221.403,E,1,12,1.0,0.0,M,0.0,M,,*64
$GPGSA,A,3,01,02,03,04,05,06,07,08,09,10,11,12,1.0,1.0,1.0*30
$GPRMC,171958.656,A,4851.406,N,00221.403,E,023.3,287.3,220518,000.0,W*70
$GPGGA,171959.656,4851.408,N,00221.394,E,1,12,1.0,0.0,M,0.0,M,,*62
$GPGSA,A,3,01,02,03,04,05,06,07,08,09,10,11,12,1.0,1.0,1.0*30
$GPRMC,171959.656,A,4851.408,N,00221.394,E,023.3,287.3,220518,000.0,W*76
$GPGGA,172000.656,4851.411,N,00221.385,E,1,12,1.0,0.0,M,0.0,M,,*6C
$GPGSA,A,3,01,02,03,04,05,06,07,08,09,10,11,12,1.0,1.0,1.0*30
$GPRMC,172000.656,A,4851.411,N,00221.385,E,023.3,287.3,220518,000.0,W*78
$GPGGA,172001.656,4851.414,N,00221.376,E,1,12,1.0,0.0,M,0.0,M,,*64
$GPGSA,A,3,01,02,03,04,05,06,07,08,09,10,11,12,1.0,1.0,1.0*30
$GPRMC,172001.656,A,4851.414,N,00221.376,E,023.3,287.3,220518,000.0,W*70
$GPGGA,172002.656,4851.417,N,00221.367,E,1,12,1.0,0.0,M,0.0,M,,*64
$GPGSA,A,3,01,02,03,04,05,06,07,08,09,10,11,12,1.0,1.0,1.0*30
$GPRMC,172002.656,A,4851.417,N,00221.367,E,023.3,287.3,220518,000.0,W*70
$GPGGA,172003.656,4851.419,N,00221.358,E,1,12,1.0,0.0,M,0.0,M,,*67
$GPGSA,A,3,01,02,03,04,05,06,07,08,09,10,11,12,1.0,1.0,1.0*30
$GPRMC,172003.656,A,4851.419,N,00221.358,E,023.3,287.3,220518,000.0,W*73
$GPGGA,172004.656,4851.422,N,00221.349,E,1,12,1.0,0.0,M,0.0,M,,*68
$GPGSA,A,3,01,02,03,04,05,06,07,08,09,10,11,12,1.0,1.0,1.0*30
$GPRMC,172004.656,A,4851.422,N,00221.349,E,023.3,287.3,220518,000.0,W*7C
$GPGGA,172005.656,4851.425,N,00221.341,E,1,12,1.0,0.0,M,0.0,M,,*66
$GPGSA,A,3,01,02,03,04,05,06,07,08,09,10,11,12,1.0,1.0,1.0*30
$GPRMC,172005.656,A,4851.425,N,00221.341,E,023.3,287.3,220518,000.0,W*72
$GPGGA,172006.656,4851.428,N,00221.332,E,1,12,1.0,0.0,M,0.0,M,,*6C
$GPGSA,A,3,01,02,03,04,05,06,07,08,09,10,11,12,1.0,1.0,1.0*30
$GPRMC,172006.656,A,4851.428,N,00221.332,E,023.3,287.3,220518,000.0,W*78
$GPGGA,172007.656,4851.430,N,00221.323,E,1,12,1.0,0.0,M,0.0,M,,*64
$GPGSA,A,3,01,02,03,04,05,06,07,08,09,10,11,12,1.0,1.0,1.0*30
$GPRMC,172007.656,A,4851.430,N,00221.323,E,023.3,287.3,220518,000.0,W*70
$GPGGA,172008.656,4851.433,N,00221.314,E,1,12,1.0,0.0,M,0.0,M,,*6C
$GPGSA,A,3,01,02,03,04,05,06,07,08,09,10,11,12,1.0,1.0,1.0*30
$GPRMC,172008.656,A,4851.433,N,00221.314,E,023.3,287.3,220518,000.0,W*78
$GPGGA,172009.656,4851.436,N,00221.305,E,1,12,1.0,0.0,M,0.0,M,,*68
$GPGSA,A,3,01,02,03,04,05,06,07,08,09,10,11,12,1.0,1.0,1.0*30
$GPRMC,172009.656,A,4851.436,N,00221.305,E,023.3,287.3,220518,000.0,W*7C
$GPGGA,172010.656,4851.439,N,00221.296,E,1,12,1.0,0.0,M,0.0,M,,*64
$GPGSA,A,3,01,02,03,04,05,06,07,08,09,10,11,12,1.0,1.0,1.0*30
$GPRMC,172010.656,A,4851.439,N,00221.296,E,023.3,287.3,220518,000.0,W*70
$GPGGA,172011.656,4851.441,N,00221.287,E,1,12,1.0,0.0,M,0.0,M,,*6A
$GPGSA,A,3,01,02,03,04,05,06,07,08,09,10,11,12,1.0,1.0,1.0*30
$GPRMC,172011.656,A,4851.441,N,00221.287,E,023.3,287.3,220518,000.0,W*7E
$GPGGA,172012.656,4851.444,N,00221.278,E,1,12,1.0,0.0,M,0.0,M,,*6C
$GPGSA,A,3,01,02,03,04,05,06,07,08,09,10,11,12,1.0,1.0,1.0*30
$GPRMC,172012.656,A,4851.444,N,00221.278,E,023.3,287.3,220518,000.0,W*78
$GPGGA,172013.656,4851.447,N,00221.269,E,1,12,1.0,0.0,M,0.0,M,,*6E
$GPGSA,A,3,01,02,03,04,05,06,07,08,09,10,11,12,1.0,1.0,1.0*30
$GPRMC,172013.656,A,4851.447,N,00221.269,E,023.3,287.3,220518,000.0,W*7A
$GPGGA,172014.656,4851.450,N,00221.260,E,1,12,1.0,0.0,M,0.0,M,,*66
$GPGSA,A,3,01,02,03,04,05,06,07,08,09,10,11,12,1.0,1.0,1.0*30
$GPRMC,172014.656,A,4851.450,N,00221.260,E,023.3,287.3,220518,000.0,W*72
$GPGGA,172015.656,4851.452,N,00221.252,E,1,12,1.0,0.0,M,0.0,M,,*64
$GPGSA,A,3,01,02,03,04,05,06,07,08,09,10,11,12,1.0,1.0,1.0*30
$GPRMC,172015.656,A,4851.452,N,00221.252,E,023.3,287.3,220518,000.0,W*70
$GPGGA,172016.656,4851.455,N,00221.243,E,1,12,1.0,0.0,M,0.0,M,,*60
$GPGSA,A,3,01,02,03,04,05,06,07,08,09,10,11,12,1.0,1.0,1.0*30
$GPRMC,172016.656,A,4851.455,N,00221.243,E,023.3,287.3,220518,000.0,W*74
$GPGGA,172017.656,4851.458,N,00221.234,E,1,12,1.0,0.0,M,0.0,M,,*6C
$GPGSA,A,3,01,02,03,04,05,06,07,08,09,10,11,12,1.0,1.0,1.0*30
$GPRMC,172017.656,A,4851.458,N,00221.234,E,023.3,287.3,220518,000.0,W*78
$GPGGA,172018.656,4851.461,N,00221.225,E,1,12,1.0,0.0,M,0.0,M,,*69
$GPGSA,A,3,01,02,03,04,05,06,07,08,09,10,11,12,1.0,1.0,1.0*30
$GPRMC,172018.656,A,4851.461,N,00221.225,E,023.3,287.3,220518,000.0,W*7D
$GPGGA,172019.656,4851.464,N,00221.216,E,1,12,1.0,0.0,M,0.0,M,,*6D
$GPGSA,A,3,01,02,03,04,05,06,07,08,09,10,11,12,1.0,1.0,1.0*30
$GPRMC,172019.656,A,4851.464,N,00221.216,E,023.3,287.3,220518,000.0,W*79
$GPGGA,172020.656,4851.466,N,00221.207,E,1,12,1.0,0.0,M,0.0,M,,*65
$GPGSA,A,3,01,02,03,04,05,06,07,08,09,10,11,12,1.0,1.0,1.0*30
$GPRMC,172020.656,A,4851.466,N,00221.207,E,023.3,287.3,220518,000.0,W*71
$GPGGA,172021.656,4851.469,N,00221.198,E,1,12,1.0,0.0,M,0.0,M,,*6E
$GPGSA,A,3,01,02,03,04,05,06,07,08,09,10,11,12,1.0,1.0,1.0*30
$GPRMC,172021.656,A,4851.469,N,00221.198,E,023.3,287.3,220518,000.0,W*7A
$GPGGA,172022.656,4851.472,N,00221.189,E,1,12,1.0,0.0,M,0.0,M,,*67
$GPGSA,A,3,01,02,03,04,05,06,07,08,09,10,11,12,1.0,1.0,1.0*30
$GPRMC,172022.656,A,4851.472,N,00221.189,E,023.3,287.3,220518,000.0,W*73
$GPGGA,172023.656,4851.475,N,00221.180,E,1,12,1.0,0.0,M,0.0,M,,*68
$GPGSA,A,3,01,02,03,04,05,06,07,08,09,10,11,12,1.0,1.0,1.0*30
$GPRMC,172023.656,A,4851.475,N,00221.180,E,023.3,287.3,220518,000.0,W*7C
$GPGGA,172024.656,4851.477,N,00221.171,E,1,12,1.0,0.0,M,0.0,M,,*63
$GPGSA,A,3,01,02,03,04,05,06,07,08,09,10,11,12,1.0,1.0,1.0*30
$GPRMC,172024.656,A,4851.477,N,00221.171,E,023.3,287.3,220518,000.0,W*77
$GPGGA,172025.656,4851.480,N,00221.162,E,1,12,1.0,0.0,M,0.0,M,,*68
$GPGSA,A,3,01,02,03,04,05,06,07,08,09,10,11,12,1.0,1.0,1.0*30
$GPRMC,172025.656,A,4851.480,N,00221.162,E,023.3,287.3,220518,000.0,W*7C
$GPGGA,172026.656,4851.483,N,00221.154,E,1,12,1.0,0.0,M,0.0,M,,*6D
$GPGSA,A,3,01,02,03,04,05,06,07,08,09,10,11,12,1.0,1.0,1.0*30
$GPRMC,172026.656,A,4851.483,N,00221.154,E,023.3,287.3,220518,000.0,W*79
$GPGGA,172027.656,4851.486,N,00221.145,E,1,12,1.0,0.0,M,0.0,M,,*69
$GPGSA,A,3,01,02,03,04,05,06,07,08,09,10,11,12,1.0,1.0,1.0*30
$GPRMC,172027.656,A,4851.486,N,00221.145,E,023.3,287.3,220518,000.0,W*7D
$GPGGA,172028.656,4851.488,N,00221.136,E,1,12,1.0,0.0,M,0.0,M,,*6C
$GPGSA,A,3,01,02,03,04,05,06,07,08,09,10,11,12,1.0,1.0,1.0*30
$GPRMC,172028.656,A,4851.488,N,00221.136,E,023.3,287.3,220518,000.0,W*78
$GPGGA,172029.656,4851.491,N,00221.127,E,1,12,1.0,0.0,M,0.0,M,,*65
$GPGSA,A,3,01,02,03,04,05,06,07,08,09,10,11,12,1.0,1.0,1.0*30
$GPRMC,172029.656,A,4851.491,N,00221.127,E,023.3,287.3,220518,000.0,W*71
$GPGGA,172030.656,4851.494,N,00221.118,E,1,12,1.0,0.0,M,0.0,M,,*64
$GPGSA,A,3,01,02,03,04,05,06,07,08,09,10,11,12,1.0,1.0,1.0*30
$GPRMC,172030.656,A,4851.494,N,00221.118,E,023.3,287.3,220518,000.0,W*70
$GPGGA,172031.656,4851.497,N,00221.109,E,1,12,1.0,0.0,M,0.0,M,,*66
$GPGSA,A,3,01,02,03,04,05,06,07,08,09,10,11,12,1.0,1.0,1.0*30
$GPRMC,172031.656,A,4851.497,N,00221.109,E,023.3,287.3,220518,000.0,W*72
$GPGGA,172032.656,4851.499,N,00221.100,E,1,12,1.0,0.0,M,0.0,M,,*62
$GPGSA,A,3,01,02,03,04,05,06,07,08,09,10,11,12,1.0,1.0,1.0*30
$GPRMC,172032.656,A,4851.499,N,00221.100,E,023.3,287.3,220518,000.0,W*76
$GPGGA,172033.656,4851.502,N,00221.091,E,1,12,1.0,0.0,M,0.0,M,,*69
$GPGSA,A,3,01,02,03,04,05,06,07,08,09,10,11,12,1.0,1.0,1.0*30
$GPRMC,172033.656,A,4851.502,N,00221.091,E,023.3,287.3,220518,000.0,W*7D
$GPGGA,172034.656,4851.505,N,00221.082,E,1,12,1.0,0.0,M,0.0,M,,*6B
$GPGSA,A,3,01,02,03,04,05,06,07,08,09,10,11,12,1.0,1.0,1.0*30
$GPRMC,172034.656,A,4851.505,N,00221.082,E,023.3,287.3,220518,000.0,W*7F
$GPGGA,172035.656,4851.508,N,00221.073,E,1,12,1.0,0.0,M,0.0,M,,*69
$GPGSA,A,3,01,02,03,04,05,06,07,08,09,10,11,12,1.0,1.0,1.0*30
$GPRMC,172035.656,A,4851.508,N,00221.073,E,023.3,287.3,220518,000.0,W*7D
$GPGGA,172036.656,4851.510,N,00221.065,E,1,12,1.0,0.0,M,0.0,M,,*64
$GPGSA,A,3,01,02,03,04,05,06,07,08,09,10,11,12,1.0,1.0,1.0*30
$GPRMC,172036.656,A,4851.510,N,00221.065,E,023.3,287.3,220518,000.0,W*70
$GPGGA,172037.656,4851.513,N,00221.056,E,1,12,1.0,0.0,M,0.0,M,,*66
$GPGSA,A,3,01,02,03,04,05,06,07,08,09,10,11,12,1.0,1.0,1.0*30
$GPRMC,172037.656,A,4851.513,N,00221.056,E,023.3,287.3,220518,000.0,W*72
$GPGGA,172038.656,4851.516,N,00221.047,E,1,12,1.0,0.0,M,0.0,M,,*6C
$GPGSA,A,3,01,02,03,04,05,06,07,08,09,10,11,12,1.0,1.0,1.0*30
$GPRMC,172038.656,A,4851.516,N,00221.047,E,023.3,287.3,220518,000.0,W*78
$GPGGA,172039.656,4851.519,N,00221.038,E,1,12,1.0,0.0,M,0.0,M,,*6A
$GPGSA,A,3,01,02,03,04,05,06,07,08,09,10,11,12,1.0,1.0,1.0*30
$GPRMC,172039.656,A,4851.519,N,00221.038,E,023.3,287.3,220518,000.0,W*7E
$GPGGA,172040.656,4851.521,N,00221.029,E,1,12,1.0,0.0,M,0.0,M,,*6F
$GPGSA,A,3,01,02,03,04,05,06,07,08,09,10,11,12,1.0,1.0,1.0*30
$GPRMC,172040.656,A,4851.521,N,00221.029,E,023.3,287.3,220518,000.0,W*7B
$GPGGA,172041.656,4851.524,N,00221.020,E,1,12,1.0,0.0,M,0.0,M,,*62
$GPGSA,A,3,01,02,03,04,05,06,07,08,09,10,11,12,1.0,1.0,1.0*30
$GPRMC,172041.656,A,4851.524,N,00221.020,E,023.3,287.3,220518,000.0,W*76
$GPGGA,172042.656,4851.527,N,00221.011,E,1,12,1.0,0.0,M,0.0,M,,*60
$GPGSA,A,3,01,02,03,04,05,06,07,08,09,10,11,12,1.0,1.0,1.0*30
$GPRMC,172042.656,A,4851.527,N,00221.011,E,023.3,287.3,220518,000.0,W*74
$GPGGA,172043.656,4851.530,N,00221.002,E,1,12,1.0,0.0,M,0.0,M,,*65
$GPGSA,A,3,01,02,03,04,05,06,07,08,09,10,11,12,1.0,1.0,1.0*30
$GPRMC,172043.656,A,4851.530,N,00221.002,E,023.3,287.3,220518,000.0,W*71
$GPGGA,172044.656,4851.533,N,00220.993,E,1,12,1.0,0.0,M,0.0,M,,*61
$GPGSA,A,3,01,02,03,04,05,06,07,08,09,10,11,12,1.0,1.0,1.0*30
$GPRMC,172044.656,A,4851.533,N,00220.993,E,023.3,287.3,220518,000.0,W*75
$GPGGA,172045.656,4851.535,N,00220.984,E,1,12,1.0,0.0,M,0.0,M,,*60
$GPGSA,A,3,01,02,03,04,05,06,07,08,09,10,11,12,1.0,1.0,1.0*30
$GPRMC,172045.656,A,4851.535,N,00220.984,E,023.3,287.3,220518,000.0,W*74
$GPGGA,172046.656,4851.538,N,00220.976,E,1,12,1.0,0.0,M,0.0,M,,*63
$GPGSA,A,3,01,02,03,04,05,06,07,08,09,10,11,12,1.0,1.0,1.0*30
$GPRMC,172046.656,A,4851.538,N,00220.976,E,023.3,287.3,220518,000.0,W*77
$GPGGA,172047.656,4851.541,N,00220.967,E,1,12,1.0,0.0,M,0.0,M,,*6C
$GPGSA,A,3,01,02,03,04,05,06,07,08,09,10,11,12,1.0,1.0,1.0*30
$GPRMC,172047.656,A,4851.541,N,00220.967,E,023.3,287.3,220518,000.0,W*78
$GPGGA,172048.656,4851.544,N,00220.958,E,1,12,1.0,0.0,M,0.0,M,,*6A
$GPGSA,A,3,01,02,03,04,05,06,07,08,09,10,11,12,1.0,1.0,1.0*30
$GPRMC,172048.656,A,4851.544,N,00220.958,E,023.3,287.3,220518,000.0,W*7E
$GPGGA,172049.656,4851.546,N,00220.949,E,1,12,1.0,0.0,M,0.0,M,,*69
$GPGSA,A,3,01,02,03,04,05,06,07,08,09,10,11,12,1.0,1.0,1.0*30
$GPRMC,172049.656,A,4851.546,N,00220.949,E,023.3,287.3,220518,000.0,W*7D
$GPGGA,172050.656,4851.549,N,00220.940,E,1,12,1.0,0.0,M,0.0,M,,*67
$GPGSA,A,3,01,02,03,04,05,06,07,08,09,10,11,12,1.0,1.0,1.0*30
$GPRMC,172050.656,A,4851.549,N,00220.940,E,023.3,287.3,220518,000.0,W*73
$GPGGA,172051.656,4851.552,N,00220.931,E,1,12,1.0,0.0,M,0.0,M,,*6A
$GPGSA,A,3,01,02,03,04,05,06,07,08,09,10,11,12,1.0,1.0,1.0*30
$GPRMC,172051.656,A,4851.552,N,00220.931,E,023.3,287.3,220518,000.0,W*7E
$GPGGA,172052.656,4851.555,N,00220.922,E,1,12,1.0,0.0,M,0.0,M,,*6C
$GPGSA,A,3,01,02,03,04,05,06,07,08,09,10,11,12,1.0,1.0,1.0*30
$GPRMC,172052.656,A,4851.555,N,00220.922,E,023.3,287.3,220518,000.0,W*78
$GPGGA,172053.656,4851.557,N,00220.913,E,1,12,1.0,0.0,M,0.0,M,,*6D
$GPGSA,A,3,01,02,03,04,05,06,07,08,09,10,11,12,1.0,1.0,1.0*30
$GPRMC,172053.656,A,4851.557,N,00220.913,E,023.3,287.3,220518,000.0,W*79
$GPGGA,172054.656,4851.560,N,00220.904,E,1,12,1.0,0.0,M,0.0,M,,*68
$GPGSA,A,3,01,02,03,04,05,06,07,08,09,10,11,12,1.0,1.0,1.0*30
$GPRMC,172054.656,A,4851.560,N,00220.904,E,023.3,287.3,220518,000.0,W*7C
$GPGGA,172055.656,4851.563,N,00220.895,E,1,12,1.0,0.0,M,0.0,M,,*63
$GPGSA,A,3,01,02,03,04,05,06,07,08,09,10,11,12,1.0,1.0,1.0*30
$GPRMC,172055.656,A,4851.563,N,00220.895,E,023.3,287.3,220518,000.0,W*77
$GPGGA,172056.656,4851.566,N,00220.886,E,1,12,1.0,0.0,M,0.0,M,,*67
$GPGSA,A,3,01,02,03,04,05,06,07,08,09,10,11,12,1.0,1.0,1.0*30
$GPRMC,172056.656,A,4851.566,N,00220.886,E,023.3,287.3,220518,000.0,W*73
$GPGGA,172057.656,4851.568,N,00220.878,E,1,12,1.0,0.0,M,0.0,M,,*69
$GPGSA,A,3,01,02,03,04,05,06,07,08,09,10,11,12,1.0,1.0,1.0*30
$GPRMC,172057.656,A,4851.568,N,00220.878,E,023.3,287.3,220518,000.0,W*7D
$GPGGA,172058.656,4851.571,N,00220.869,E,1,12,1.0,0.0,M,0.0,M,,*6E
$GPGSA,A,3,01,02,03,04,05,06,07,08,09,10,11,12,1.0,1.0,1.0*30
$GPRMC,172058.656,A,4851.571,N,00220.869,E,023.3,287.3,220518,000.0,W*7A
$GPGGA,172059.656,4851.574,N,00220.860,E,1,12,1.0,0.0,M,0.0,M,,*63
$GPGSA,A,3,01,02,03,04,05,06,07,08,09,10,11,12,1.0,1.0,1.0*30
$GPRMC,172059.656,A,4851.574,N,00220.860,E,023.3,287.3,220518,000.0,W*77
$GPGGA,172100.656,4851.577,N,00220.851,E,1,12,1.0,0.0,M,0.0,M,,*6F
$GPGSA,A,3,01,02,03,04,05,06,07,08,09,10,11,12,1.0,1.0,1.0*30
$GPRMC,172100.656,A,4851.577,N,00220.851,E,023.3,287.3,220518,000.0,W*7B
$GPGGA,172101.656,4851.579,N,00220.842,E,1,12,1.0,0.0,M,0.0,M,,*62
$GPGSA,A,3,01,02,03,04,05,06,07,08,09,10,11,12,1.0,1.0,1.0*30
$GPRMC,172101.656,A,4851.579,N,00220.842,E,023.3,287.3,220518,000.0,W*76
$GPGGA,172102.656,4851.582,N,00220.833,E,1,12,1.0,0.0,M,0.0,M,,*63
$GPGSA,A,3,01,02,03,04,05,06,07,08,09,10,11,12,1.0,1.0,1.0*30
$GPRMC,172102.656,A,4851.582,N,00220.833,E,023.3,287.3,220518,000.0,W*77
$GPGGA,172103.656,4851.585,N,00220.824,E,1,12,1.0,0.0,M,0.0,M,,*63
$GPGSA,A,3,01,02,03,04,05,06,07,08,09,10,11,12,1.0,1.0,1.0*30
$GPRMC,172103.656,A,4851.585,N,00220.824,E,023.3,287.3,220518,000.0,W*77
$GPGGA,172104.656,4851.588,N,00220.815,E,1,12,1.0,0.0,M,0.0,M,,*6B
$GPGSA,A,3,01,02,03,04,05,06,07,08,09,10,11,12,1.0,1.0,1.0*30
$GPRMC,172104.656,A,4851.588,N,00220.815,E,023.3,287.3,220518,000.0,W*7F
$GPGGA,172105.656,4851.590,N,00220.806,E,1,12,1.0,0.0,M,0.0,M,,*61
$GPGSA,A,3,01,02,03,04,05,06,07,08,09,10,11,12,1.0,1.0,1.0*30
$GPRMC,172105.656,A,4851.590,N,00220.806,E,023.3,287.3,220518,000.0,W*75
$GPGGA,172106.656,4851.593,N,00220.797,E,1,12,1.0,0.0,M,0.0,M,,*66
$GPGSA,A,3,01,02,03,04,05,06,07,08,09,10,11,12,1.0,1.0,1.0*30
$GPRMC,172106.656,A,4851.593,N,00220.797,E,023.3,035.5,220518,000.0,W*7F
$GPGGA,172107.656,4851.599,N,00220.802,E,1,12,1.0,0.0,M,0.0,M,,*6E
$GPGSA,A,3,01,02,03,04,05,06,07,08,09,10,11,12,1.0,1.0,1.0*30
$GPRMC,172107.656,A,4851.599,N,00220.802,E,023.3,035.5,220518,000.0,W*77
$GPGGA,172108.656,4851.605,N,00220.806,E,1,12,1.0,0.0,M,0.0,M,,*63
$GPGSA,A,3,01,02,03,04,05,06,07,08,09,10,11,12,1.0,1.0,1.0*30
$GPRMC,172108.656,A,4851.605,N,00220.806,E,023.3,035.5,220518,000.0,W*7A
$GPGGA,172109.656,4851.611,N,00220.810,E,1,12,1.0,0.0,M,0.0,M,,*60
$GPGSA,A,3,01,02,03,04,05,06,07,08,09,10,11,12,1.0,1.0,1.0*30
$GPRMC,172109.656,A,4851.611,N,00220.810,E,023.3,035.5,220518,000.0,W*79
$GPGGA,172110.656,4851.617,N,00220.814,E,1,12,1.0,0.0,M,0.0,M,,*6A
$GPGSA,A,3,01,02,03,04,05,06,07,08,09,10,11,12,1.0,1.0,1.0*30
$GPRMC,172110.656,A,4851.617,N,00220.814,E,023.3,035.5,220518,000.0,W*73
$GPGGA,172111.656,4851.623,N,00220.818,E,1,12,1.0,0.0,M,0.0,M,,*60
$GPGSA,A,3,01,02,03,04,05,06,07,08,09,10,11,12,1.0,1.0,1.0*30
$GPRMC,172111.656,A,4851.623,N,00220.818,E,023.3,035.5,220518,000.0,W*79
$GPGGA,172112.656,4851.628,N,00220.823,E,1,12,1.0,0.0,M,0.0,M,,*60
$GPGSA,A,3,01,02,03,04,05,06,07,08,09,10,11,12,1.0,1.0,1.0*30
$GPRMC,172112.656,A,4851.628,N,00220.823,E,023.3,035.5,220518,000.0,W*79
$GPGGA,172113.656,4851.634,N,00220.827,E,1,12,1.0,0.0,M,0.0,M,,*68
$GPGSA,A,3,01,02,03,04,05,06,07,08,09,10,11,12,1.0,1.0,1.0*30
$GPRMC,172113.656,A,4851.634,N,00220.827,E,023.3,035.5,220518,000.0,W*71
$GPGGA,172114.656,4851.640,N,00220.831,E,1,12,1.0,0.0,M,0.0,M,,*6B
$GPGSA,A,3,01,02,03,04,05,06,07,08,09,10,11,12,1.0,1.0,1.0*30
$GPRMC,172114.656,A,4851.640,N,00220.831,E,023.3,035.5,220518,000.0,W*72
$GPGGA,172115.656,4851.646,N,00220.835,E,1,12,1.0,0.0,M,0.0,M,,*68
$GPGSA,A,3,01,02,03,04,05,06,07,08,09,10,11,12,1.0,1.0,1.0*30
$GPRMC,172115.656,A,4851.646,N,00220.835,E,023.3,035.5,220518,000.0,W*71
$GPGGA,172116.656,4851.652,N,00220.839,E,1,12,1.0,0.0,M,0.0,M,,*62
$GPGSA,A,3,01,02,03,04,05,06,07,08,09,10,11,12,1.0,1.0,1.0*30
$GPRMC,172116.656,A,4851.652,N,00220.839,E,023.3,035.5,220518,000.0,W*7B
$GPGGA,172117.656,4851.658,N,00220.844,E,1,12,1.0,0.0,M,0.0,M,,*63
$GPGSA,A,3,01,02,03,04,05,06,07,08,09,10,11,12,1.0,1.0,1.0*30
$GPRMC,172117.656,A,4851.658,N,00220.844,E,023.3,035.5,220518,000.0,W*7A
$GPGGA,172118.656,4851.664,N,00220.848,E,1,12,1.0,0.0,M,0.0,M,,*6F
$GPGSA,A,3,01,02,03,04,05,06,07,08,09,10,11,12,1.0,1.0,1.0*30
$GPRMC,172118.656,A,4851.664,N,00220.848,E,023.3,035.5,220518,000.0,W*76
$GPGGA,172119.656,4851.669,N,00220.852,E,1,12,1.0,0.0,M,0.0,M,,*68
$GPGSA,A,3,01,02,03,04,05,06,07,08,09,10,11,12,1.0,1.0,1.0*30
$GPRMC,172119.656,A,4851.669,N,00220.852,E,023.3,035.5,220518,000.0,W*71
$GPGGA,172120.656,4851.675,N,00220.856,E,1,12,1.0,0.0,M,0.0,M,,*6B
$GPGSA,A,3,01,02,03,04,05,06,07,08,09,10,11,12,1.0,1.0,1.0*30
$GPRMC,172120.656,A,4851.675,N,00220.856,E,023.3,035.5,220518,000.0,W*72
$GPGGA,172121.656,4851.681,N,00220.860,E,1,12,1.0,0.0,M,0.0,M,,*64
$GPGSA,A,3,01,02,03,04,05,06,07,08,09,10,11,12,1.0,1.0,1.0*30
$GPRMC,172121.656,A,4851.681,N,00220.860,E,023.3,035.5,220518,000.0,W*7D
$GPGGA,172122.656,4851.687,N,00220.865,E,1,12,1.0,0.0,M,0.0,M,,*64
$GPGSA,A,3,01,02,03,04,05,06,07,08,09,10,11,12,1.0,1.0,1.0*30
$GPRMC,172122.656,A,4851.687,N,00220.865,E,023.3,035.5,220518,000.0,W*7D
$GPGGA,172123.656,4851.693,N,00220.869,E,1,12,1.0,0.0,M,0.0,M,,*6C
$GPGSA,A,3,01,02,03,04,05,06,07,08,09,10,11,12,1.0,1.0,1.0*30
$GPRMC,172123.656,A,4851.693,N,00220.869,E,023.3,035.5,220518,000.0,W*75
$GPGGA,172124.656,4851.699,N,00220.873,E,1,12,1.0,0.0,M,0.0,M,,*6A
$GPGSA,A,3,01,02,03,04,05,06,07,08,09,10,11,12,1.0,1.0,1.0*30
$GPRMC,172124.656,A,4851.699,N,00220.873,E,023.3,035.5,220518,000.0,W*73
$GPGGA,172125.656,4851.705,N,00220.877,E,1,12,1.0,0.0,M,0.0,M,,*6B
$GPGSA,A,3,01,02,03,04,05,06,07,08,09,10,11,12,1.0,1.0,1.0*30
$GPRMC,172125.656,A,4851.705,N,00220.877,E,023.3,035.5,220518,000.0,W*72
$GPGGA,172126.656,4851.710,N,00220.881,E,1,12,1.0,0.0,M,0.0,M,,*65
$GPGSA,A,3,01,02,03,04,05,06,07,08,09,10,11,12,1.0,1.0,1.0*30
$GPRMC,172126.656,A,4851.710,N,00220.881,E,023.3,035.5,220518,000.0,W*7C
$GPGGA,172127.656,4851.716,N,00220.885,E,1,12,1.0,0.0,M,0.0,M,,*66
$GPGSA,A,3,01,02,03,04,05,06,07,08,09,10,11,12,1.0,1.0,1.0*30
$GPRMC,172127.656,A,4851.716,N,00220.885,E,023.3,035.5,220518,000.0,W*7F
$GPGGA,172128.656,4851.722,N,00220.890,E,1,12,1.0,0.0,M,0.0,M,,*6A
$GPGSA,A,3,01,02,03,04,05,06,07,08,09,10,11,12,1.0,1.0,1.0*30
$GPRMC,172128.656,A,4851.722,N,00220.890,E,023.3,035.5,220518,000.0,W*73
$GPGGA,172129.656,4851.728,N,00220.894,E,1,12,1.0,0.0,M,0.0,M,,*65
$GPGSA,A,3,01,02,03,04,05,06,07,08,09,10,11,12,1.0,1.0,1.0*30
$GPRMC,172129.656,A,4851.728,N,00220.894,E,023.3,035.5,220518,000.0,W*7C
$GPGGA,172130.656,4851.734,N,00220.898,E,1,12,1.0,0.0,M,0.0,M,,*6C
$GPGSA,A,3,01,02,03,04,05,06,07,08,09,10,11,12,1.0,1.0,1.0*30
$GPRMC,172130.656,A,4851.734,N,00220.898,E,023.3,035.5,220518,000.0,W*75
$GPGGA,172131.656,4851.740,N,00220.902,E,1,12,1.0,0.0,M,0.0,M,,*6C
$GPGSA,A,3,01,02,03,04,05,06,07,08,09,10,11,12,1.0,1.0,1.0*30
$GPRMC,172131.656,A,4851.740,N,00220.902,E,023.3,035.5,220518,000.0,W*75
$GPGGA,172132.656,4851.746,N,00220.906,E,1,12,1.0,0.0,M,0.0,M,,*6D
$GPGSA,A,3,01,02,03,04,05,06,07,08,09,10,11,12,1.0,1.0,1.0*30
$GPRMC,172132.656,A,4851.746,N,00220.906,E,023.3,035.5,220518,000.0,W*74
$GPGGA,172133.656,4851.751,N,00220.911,E,1,12,1.0,0.0,M,0.0,M,,*6C
$GPGSA,A,3,01,02,03,04,05,06,07,08,09,10,11,12,1.0,1.0,1.0*30
$GPRMC,172133.656,A,4851.751,N,00220.911,E,023.3,035.5,220518,000.0,W*75
$GPGGA,172134.656,4851.757,N,00220.915,E,1,12,1.0,0.0,M,0.0,M,,*69
$GPGSA,A,3,01,02,03,04,05,06,07,08,09,10,11,12,1.0,1.0,1.0*30
$GPRMC,172134.656,A,4851.757,N,00220.915,E,023.3,035.5,220518,000.0,W*70
$GPGGA,172135.656,4851.763,N,00220.919,E,1,12,1.0,0.0,M,0.0,M,,*63
$GPGSA,A,3,01,02,03,04,05,06,07,08,09,10,11,12,1.0,1.0,1.0*30
$GPRMC,172135.656,A,4851.763,N,00220.919,E,023.3,035.5,220518,000.0,W*7A
$GPGGA,172136.656,4851.769,N,00220.923,E,1,12,1.0,0.0,M,0.0,M,,*63
$GPGSA,A,3,01,02,03,04,05,06,07,08,09,10,11,12,1.0,1.0,1.0*30
$GPRMC,172136.656,A,4851.769,N,00220.923,E,023.3,035.5,220518,000.0,W*7A
$GPGGA,172137.656,4851.775,N,00220.927,E,1,12,1.0,0.0,M,0.0,M,,*6B
$GPGSA,A,3,01,02,03,04,05,06,07,08,09,10,11,12,1.0,1.0,1.0*30
$GPRMC,172137.656,A,4851.775,N,00220.927,E,023.3,035.5,220518,000.0,W*72
$GPGGA,172138.656,4851.781,N,00220.932,E,1,12,1.0,0.0,M,0.0,M,,*6B
$GPGSA,A,3,01,02,03,04,05,06,07,08,09,10,11,12,1.0,1.0,1.0*30
$GPRMC,172138.656,A,4851.781,N,00220.932,E,023.3,035.5,220518,000.0,W*72
$GPGGA,172139.656,4851.787,N,00220.936,E,1,12,1.0,0.0,M,0.0,M,,*68
$GPGSA,A,3,01,02,03,04,05,06,07,08,09,10,11,12,1.0,1.0,1.0*30
$GPRMC,172139.656,A,4851.787,N,00220.936,E,023.3,035.5,220518,000.0,W*71
$GPGGA,172140.656,4851.792,N,00220.940,E,1,12,1.0,0.0,M,0.0,M,,*63
$GPGSA,A,3,01,02,03,04,05,06,07,08,09,10,11,12,1.0,1.0,1.0*30
$GPRMC,172140.656,A,4851.792,N,00220.940,E,023.3,035.5,220518,000.0,W*7A
$GPGGA,172141.656,4851.798,N,00220.944,E,1,12,1.0,0.0,M,0.0,M,,*6C
$GPGSA,A,3,01,02,03,04,05,06,07,08,09,10,11,12,1.0,1.0,1.0*30
$GPRMC,172141.656,A,4851.798,N,00220.944,E,023.3,035.5,220518,000.0,W*75
$GPGGA,172142.656,4851.804,N,00220.948,E,1,12,1.0,0.0,M,0.0,M,,*69
$GPGSA,A,3,01,02,03,04,05,06,07,08,09,10,11,12,1.0,1.0,1.0*30
$GPRMC,172142.656,A,4851.804,N,00220.948,E,023.3,035.5,220518,000.0,W*70
$GPGGA,172143.656,4851.810,N,00220.953,E,1,12,1.0,0.0,M,0.0,M,,*67
$GPGSA,A,3,01,02,03,04,05,06,07,08,09,10,11,12,1.0,1.0,1.0*30
$GPRMC,172143.656,A,4851.810,N,00220.953,E,023.3,035.5,220518,000.0,W*7E
$GPGGA,172144.656,4851.816,N,00220.957,E,1,12,1.0,0.0,M,0.0,M,,*62
$GPGSA,A,3,01,02,03,04,05,06,07,08,09,10,11,12,1.0,1.0,1.0*30
$GPRMC,172144.656,A,4851.816,N,00220.957,E,023.3,035.5,220518,000.0,W*7B
$GPGGA,172145.656,4851.822,N,00220.961,E,1,12,1.0,0.0,M,0.0,M,,*61
$GPGSA,A,3,01,02,03,04,05,06,07,08,09,10,11,12,1.0,1.0,1.0*30
$GPRMC,172145.656,A,4851.822,N,00220.961,E,023.3,035.5,220518,000.0,W*78
$GPGGA,172146.656,4851.828,N,00220.965,E,1,12,1.0,0.0,M,0.0,M,,*6C
$GPGSA,A,3,01,02,03,04,05,06,07,08,09,10,11,12,1.0,1.0,1.0*30
$GPRMC,172146.656,A,4851.828,N,00220.965,E,023.3,035.5,220518,000.0,W*75
$GPGGA,172147.656,4851.833,N,00220.969,E,1,12,1.0,0.0,M,0.0,M,,*6B
$GPGSA,A,3,01,02,03,04,05,06,07,08,09,10,11,12,1.0,1.0,1.0*30
$GPRMC,172147.656,A,4851.833,N,00220.969,E,023.3,035.5,220518,000.0,W*72
$GPGGA,172148.656,4851.839,N,00220.973,E,1,12,1.0,0.0,M,0.0,M,,*65
$GPGSA,A,3,01,02,03,04,05,06,07,08,09,10,11,12,1.0,1.0,1.0*30
$GPRMC,172148.656,A,4851.839,N,00220.973,E,023.3,035.5,220518,000.0,W*7C
$GPGGA,172149.656,4851.845,N,00220.978,E,1,12,1.0,0.0,M,0.0,M,,*64
$GPGSA,A,3,01,02,03,04,05,06,07,08,09,10,11,12,1.0,1.0,1.0*30
$GPRMC,172149.656,A,4851.845,N,00220.978,E,023.3,035.5,220518,000.0,W*7D
$GPGGA,172150.656,4851.851,N,00220.982,E,1,12,1.0,0.0,M,0.0,M,,*6C
$GPGSA,A,3,01,02,03,04,05,06,07,08,09,10,11,12,1.0,1.0,1.0*30
$GPRMC,172150.656,A,4851.851,N,00220.982,E,023.3,035.5,220518,000.0,W*75
$GPGGA,172151.656,4851.857,N,00220.986,E,1,12,1.0,0.0,M,0.0,M,,*6F
$GPGSA,A,3,01,02,03,04,05,06,07,08,09,10,11,12,1.0,1.0,1.0*30
$GPRMC,172151.656,A,4851.857,N,00220.986,E,023.3,035.5,220518,000.0,W*76
$GPGGA,172152.656,4851.863,N,00220.990,E,1,12,1.0,0.0,M,0.0,M,,*6C
$GPGSA,A,3,01,02,03,04,05,06,07,08,09,10,11,12,1.0,1.0,1.0*30
$GPRMC,172152.656,A,4851.863,N,00220.990,E,023.3,035.5,220518,000.0,W*75
$GPGGA,172153.656,4851.869,N,00220.994,E,1,12,1.0,0.0,M,0.0,M,,*63
$GPGSA,A,3,01,02,03,04,05,06,07,08,09,10,11,12,1.0,1.0,1.0*30
$GPRMC,172153.656,A,4851.869,N,00220.994,E,023.3,035.5,220518,000.0,W*7A
$GPGGA,172154.656,4851.874,N,00220.999,E,1,12,1.0,0.0,M,0.0,M,,*65
$GPGSA,A,3,01,02,03,04,05,06,07,08,09,10,11,12,1.0,1.0,1.0*30
$GPRMC,172154.656,A,4851.874,N,00220.999,E,023.3,035.5,220518,000.0,W*7C
$GPGGA,172155.656,4851.880,N,00221.003,E,1,12,1.0,0.0,M,0.0,M,,*64
$GPGSA,A,3,01,02,03,04,05,06,07,08,09,10,11,12,1.0,1.0,1.0*30
$GPRMC,172155.656,A,4851.880,N,00221.003,E,023.3,035.5,220518,000.0,W*7D
$GPGGA,172156.656,4851.886,N,00221.007,E,1,12,1.0,0.0,M,0.0,M,,*65
$GPGSA,A,3,01,02,03,04,05,06,07,08,09,10,11,12,1.0,1.0,1.0*30
$GPRMC,172156.656,A,4851.886,N,00221.007,E,023.3,035.5,220518,000.0,W*7C
$GPGGA,172157.656,4851.892,N,00221.011,E,1,12,1.0,0.0,M,0.0,M,,*66
$GPGSA,A,3,01,02,03,04,05,06,07,08,09,10,11,12,1.0,1.0,1.0*30
$GPRMC,172157.656,A,4851.892,N,00221.011,E,023.3,035.5,220518,000.0,W*7F
$GPGGA,172158.656,4851.898,N,00221.015,E,1,12,1.0,0.0,M,0.0,M,,*67
$GPGSA,A,3,01,02,03,04,05,06,07,08,09,10,11,12,1.0,1.0,1.0*30
$GPRMC,172158.656,A,4851.898,N,00221.015,E,023.3,035.5,220518,000.0,W*7E
$GPGGA,172159.656,4851.904,N,00221.020,E,1,12,1.0,0.0,M,0.0,M,,*64
$GPGSA,A,3,01,02,03,04,05,06,07,08,09,10,11,12,1.0,1.0,1.0*30
$GPRMC,172159.656,A,4851.904,N,00221.020,E,023.3,035.5,220518,000.0,W*7D
$GPGGA,172200.656,4851.910,N,00221.024,E,1,12,1.0,0.0,M,0.0,M,,*6A
$GPGSA,A,3,01,02,03,04,05,06,07,08,09,10,11,12,1.0,1.0,1.0*30
$GPRMC,172200.656,A,4851.910,N,00221.024,E,023.3,035.5,220518,000.0,W*73
$GPGGA,172201.656,4851.915,N,00221.028,E,1,12,1.0,0.0,M,0.0,M,,*62
$GPGSA,A,3,01,02,03,04,05,06,07,08,09,10,11,12,1.0,1.0,1.0*30
$GPRMC,172201.656,A,4851.915,N,00221.028,E,023.3,320.2,220518,000.0,W*7B
$GPGGA,172202.656,4851.921,N,00221.023,E,1,12,1.0,0.0,M,0.0,M,,*6D
$GPGSA,A,3,01,02,03,04,05,06,07,08,09,10,11,12,1.0,1.0,1.0*30
$GPRMC,172202.656,A,4851.921,N,00221.023,E,023.3,320.2,220518,000.0,W*74
$GPGGA,172203.656,4851.927,N,00221.018,E,1,12,1.0,0.0,M,0.0,M,,*62
$GPGSA,A,3,01,02,03,04,05,06,07,08,09,10,11,12,1.0,1.0,1.0*30
$GPRMC,172203.656,A,4851.927,N,00221.018,E,023.3,320.2,220518,000.0,W*7B
$GPGGA,172204.656,4851.932,N,00221.014,E,1,12,1.0,0.0,M,0.0,M,,*6D
$GPGSA,A,3,01,02,03,04,05,06,07,08,09,10,11,12,1.0,1.0,1.0*30
$GPRMC,172204.656,A,4851.932,N,00221.014,E,023.3,320.2,220518,000.0,W*74
$GPGGA,172205.656,4851.938,N,00221.009,E,1,12,1.0,0.0,M,0.0,M,,*6A
$GPGSA,A,3,01,02,03,04,05,06,07,08,09,10,11,12,1.0,1.0,1.0*30
$GPRMC,172205.656,A,4851.938,N,00221.009,E,023.3,320.2,220518,000.0,W*73
$GPGGA,172206.656,4851.944,N,00221.004,E,1,12,1.0,0.0,M,0.0,M,,*6F
$GPGSA,A,3,01,02,03,04,05,06,07,08,09,10,11,12,1.0,1.0,1.0*30
$GPRMC,172206.656,A,4851.944,N,00221.004,E,023.3,320.2,220518,000.0,W*76
$GPGGA,172207.656,4851.949,N,00220.999,E,1,12,1.0,0.0,M,0.0,M,,*6F
$GPGSA,A,3,01,02,03,04,05,06,07,08,09,10,11,12,1.0,1.0,1.0*30
$GPRMC,172207.656,A,4851.949,N,00220.999,E,023.3,320.2,220518,000.0,W*76
$GPGGA,172208.656,4851.955,N,00220.995,E,1,12,1.0,0.0,M,0.0,M,,*61
$GPGSA,A,3,01,02,03,04,05,06,07,08,09,10,11,12,1.0,1.0,1.0*30
$GPRMC,172208.656,A,4851.955,N,00220.995,E,023.3,320.2,220518,000.0,W*78
$GPGGA,172209.656,4851.961,N,00220.990,E,1,12,1.0,0.0,M,0.0,M,,*62
$GPGSA,A,3,01,02,03,04,05,06,07,08,09,10,11,12,1.0,1.0,1.0*30
$GPRMC,172209.656,A,4851.961,N,00220.990,E,023.3,320.2,220518,000.0,W*7B
$GPGGA,172210.656,4851.966,N,00220.985,E,1,12,1.0,0.0,M,0.0,M,,*69
$GPGSA,A,3,01,02,03,04,05,06,07,08,09,10,11,12,1.0,1.0,1.0*30
$GPRMC,172210.656,A,4851.966,N,00220.985,E,023.3,320.2,220518,000.0,W*70
$GPGGA,172211.656,4851.972,N,00220.980,E,1,12,1.0,0.0,M,0.0,M,,*68
$GPGSA,A,3,01,02,03,04,05,06,07,08,09,10,11,12,1.0,1.0,1.0*30
$GPRMC,172211.656,A,4851.972,N,00220.980,E,023.3,320.2,220518,000.0,W*71
$GPGGA,172212.656,4851.978,N,00220.976,E,1,12,1.0,0.0,M,0.0,M,,*68
$GPGSA,A,3,01,02,03,04,05,06,07,08,09,10,11,12,1.0,1.0,1.0*30
$GPRMC,172212.656,A,4851.978,N,00220.976,E,023.3,320.2,220518,000.0,W*71
$GPGGA,172213.656,4851.984,N,00220.971,E,1,12,1.0,0.0,M,0.0,M,,*6D
$GPGSA,A,3,01,02,03,04,05,06,07,08,09,10,11,12,1.0,1.0,1.0*30
$GPRMC,172213.656,A,4851.984,N,00220.971,E,023.3,320.2,220518,000.0,W*74
$GPGGA,172214.656,4851.989,N,00220.966,E,1,12,1.0,0.0,M,0.0,M,,*61
$GPGSA,A,3,01,02,03,04,05,06,07,08,09,10,11,12,1.0,1.0,1.0*30
$GPRMC,172214.656,A,4851.989,N,00220.966,E,023.3,320.2,220518,000.0,W*78
$GPGGA,172215.656,4851.995,N,00220.961,E,1,12,1.0,0.0,M,0.0,M,,*6A
$GPGSA,A,3,01,02,03,04,05,06,07,08,09,10,11,12,1.0,1.0,1.0*30
$GPRMC,172215.656,A,4851.995,N,00220.961,E,023.3,320.2,220518,000.0,W*73
$GPGGA,172216.656,4852.001,N,00220.957,E,1,12,1.0,0.0,M,0.0,M,,*6B
$GPGSA,A,3,01,02,03,04,05,06,07,08,09,10,11,12,1.0,1.0,1.0*30
$GPRMC,172216.656,A,4852.001,N,00220.957,E,023.3,320.2,220518,000.0,W*72
$GPGGA,172217.656,4852.006,N,00220.952,E,1,12,1.0,0.0,M,0.0,M,,*68
$GPGSA,A,3,01,02,03,04,05,06,07,08,09,10,11,12,1.0,1.0,1.0*30
$GPRMC,172217.656,A,4852.006,N,00220.952,E,023.3,320.2,220518,000.0,W*71
$GPGGA,172218.656,4852.012,N,00220.947,E,1,12,1.0,0.0,M,0.0,M,,*66
$GPGSA,A,3,01,02,03,04,05,06,07,08,09,10,11,12,1.0,1.0,1.0*30
$GPRMC,172218.656,A,4852.012,N,00220.947,E,023.3,320.2,220518,000.0,W*7F
$GPGGA,172219.656,4852.018,N,00220.942,E,1,12,1.0,0.0,M,0.0,M,,*68
$GPGSA,A,3,01,02,03,04,05,06,07,08,09,10,11,12,1.0,1.0,1.0*30
$GPRMC,172219.656,A,4852.018,N,00220.942,E,023.3,320.2,220518,000.0,W*71
$GPGGA,172220.656,4852.023,N,00220.938,E,1,12,1.0,0.0,M,0.0,M,,*67
$GPGSA,A,3,01,02,03,04,05,06,07,08,09,10,11,12,1.0,1.0,1.0*30
$GPRMC,172220.656,A,4852.023,N,00220.938,E,023.3,320.2,220518,000.0,W*7E
$GPGGA,172221.656,4852.029,N,00220.933,E,1,12,1.0,0.0,M,0.0,M,,*67
$GPGSA,A,3,01,02,03,04,05,06,07,08,09,10,11,12,1.0,1.0,1.0*30
$GPRMC,172221.656,A,4852.029,N,00220.933,E,023.3,320.2,220518,000.0,W*7E
$GPGGA,172222.656,4852.035,N,00220.928,E,1,12,1.0,0.0,M,0.0,M,,*63
$GPGSA,A,3,01,02,03,04,05,06,07,08,09,10,11,12,1.0,1.0,1.0*30
$GPRMC,172222.656,A,4852.035,N,00220.928,E,023.3,320.2,220518,000.0,W*7A
$GPGGA,172223.656,4852.040,N,00220.923,E,1,12,1.0,0.0,M,0.0,M,,*6B
$GPGSA,A,3,01,02,03,04,05,06,07,08,09,10,11,12,1.0,1.0,1.0*30
$GPRMC,172223.656,A,4852.040,N,00220.923,E,023.3,320.2,220518,000.0,W*72
$GPGGA,172224.656,4852.046,N,00220.919,E,1,12,1.0,0.0,M,0.0,M,,*63
$GPGSA,A,3,01,02,03,04,05,06,07,08,09,10,11,12,1.0,1.0,1.0*30
$GPRMC,172224.656,A,4852.046,N,00220.919,E,023.3,320.2,220518,000.0,W*7A
$GPGGA,172225.656,4852.052,N,00220.914,E,1,12,1.0,0.0,M,0.0,M,,*6A
$GPGSA,A,3,01,02,03,04,05,06,07,08,09,10,11,12,1.0,1.0,1.0*30
$GPRMC,172225.656,A,4852.052,N,00220.914,E,023.3,320.2,220518,000.0,W*73
$GPGGA,172226.656,4852.057,N,00220.909,E,1,12,1.0,0.0,M,0.0,M,,*60
$GPGSA,A,3,01,02,03,04,05,06,07,08,09,10,11,12,1.0,1.0,1.0*30
$GPRMC,172226.656,A,4852.057,N,00220.909,E,023.3,320.2,220518,000.0,W*79
$GPGGA,172227.656,4852.063,N,00220.904,E,1,12,1.0,0.0,M,0.0,M,,*6B
$GPGSA,A,3,01,02,03,04,05,06,07,08,09,10,11,12,1.0,1.0,1.0*30
$GPRMC,172227.656,A,4852.063,N,00220.904,E,023.3,320.2,220518,000.0,W*72
$GPGGA,172228.656,4852.069,N,00220.900,E,1,12,1.0,0.0,M,0.0,M,,*6A
$GPGSA,A,3,01,02,03,04,05,06,07,08,09,10,11,12,1.0,1.0,1.0*30
$GPRMC,172228.656,A,4852.069,N,00220.900,E,023.3,320.2,220518,000.0,W*73
$GPGGA,172229.656,4852.074,N,00220.895,E,1,12,1.0,0.0,M,0.0,M,,*6A
$GPGSA,A,3,01,02,03,04,05,06,07,08,09,10,11,12,1.0,1.0,1.0*30
$GPRMC,172229.656,A,4852.074,N,00220.895,E,023.3,320.2,220518,000.0,W*73
$GPGGA,172230.656,4852.080,N,00220.890,E,1,12,1.0,0.0,M,0.0,M,,*6C
$GPGSA,A,3,01,02,03,04,05,06,07,08,09,10,11,12,1.0,1.0,1.0*30
$GPRMC,172230.656,A,4852.080,N,00220.890,E,023.3,320.2,220518,000.0,W*75
$GPGGA,172231.656,4852.086,N,00220.885,E,1,12,1.0,0.0,M,0.0,M,,*6F
$GPGSA,A,3,01,02,03,04,05,06,07,08,09,10,11,12,1.0,1.0,1.0*30
$GPRMC,172231.656,A,4852.086,N,00220.885,E,023.3,320.2,220518,000.0,W*76
$GPGGA,172232.656,4852.091,N,00220.881,E,1,12,1.0,0.0,M,0.0,M,,*6E
$GPGSA,A,3,01,02,03,04,05,06,07,08,09,10,11,12,1.0,1.0,1.0*30
$GPRMC,172232.656,A,4852.091,N,00220.881,E,023.3,320.2,220518,000.0,W*77
$GPGGA,172233.656,4852.097,N,00220.876,E,1,12,1.0,0.0,M,0.0,M,,*61
$GPGSA,A,3,01,02,03,04,05,06,07,08,09,10,11,12,1.0,1.0,1.0*30
$GPRMC,172233.656,A,4852.097,N,00220.876,E,023.3,320.2,220518,000.0,W*78
$GPGGA,172234.656,4852.103,N,00220.871,E,1,12,1.0,0.0,M,0.0,M,,*6D
$GPGSA,A,3,01,02,03,04,05,06,07,08,09,10,11,12,1.0,1.0,1.0*30
$GPRMC,172234.656,A,4852.103,N,00220.871,E,023.3,320.2,220518,000.0,W*74
$GPGGA,172235.656,4852.108,N,00220.866,E,1,12,1.0,0.0,M,0.0,M,,*61
$GPGSA,A,3,01,02,03,04,05,06,07,08,09,10,11,12,1.0,1.0,1.0*30
$GPRMC,172235.656,A,4852.108,N,00220.866,E,023.3,320.2,220518,000.0,W*78
$GPGGA,172236.656,4852.114,N,00220.862,E,1,12,1.0,0.0,M,0.0,M,,*6B
$GPGSA,A,3,01,02,03,04,05,06,07,08,09,10,11,12,1.0,1.0,1.0*30
$GPRMC,172236.656,A,4852.114,N,00220.862,E,023.3,320.2,220518,000.0,W*72
$GPGGA,172237.656,4852.120,N,00220.857,E,1,12,1.0,0.0,M,0.0,M,,*6B
$GPGSA,A,3,01,02,03,04,05,06,07,08,09,10,11,12,1.0,1.0,1.0*30
$GPRMC,172237.656,A,4852.120,N,00220.857,E,023.3,276.2,220518,000.0,W*70
$GPGGA,172238.656,4852.121,N,00220.847,E,1,12,1.0,0.0,M,0.0,M,,*64
$GPGSA,A,3,01,02,03,04,05,06,07,08,09,10,11,12,1.0,1.0,1.0*30
$GPRMC,172238.656,A,4852.121,N,00220.847,E,023.3,276.2,220518,000.0,W*7F
$GPGGA,172239.656,4852.122,N,00220.838,E,1,12,1.0,0.0,M,0.0,M,,*6E
$GPGSA,A,3,01,02,03,04,05,06,07,08,09,10,11,12,1.0,1.0,1.0*30
$GPRMC,172239.656,A,4852.122,N,00220.838,E,023.3,276.2,220518,000.0,W*75
$GPGGA,172240.656,4852.123,N,00220.828,E,1,12,1.0,0.0,M,0.0,M,,*60
$GPGSA,A,3,01,02,03,04,05,06,07,08,09,10,11,12,1.0,1.0,1.0*30
$GPRMC,172240.656,A,4852.123,N,00220.828,E,023.3,276.2,220518,000.0,W*7B
$GPGGA,172241.656,4852.124,N,00220.818,E,1,12,1.0,0.0,M,0.0,M,,*65
$GPGSA,A,3,01,02,03,04,05,06,07,08,09,10,11,12,1.0,1.0,1.0*30
$GPRMC,172241.656,A,4852.124,N,00220.818,E,023.3,276.2,220518,000.0,W*7E
$GPGGA,172242.656,4852.125,N,00220.808,E,1,12,1.0,0.0,M,0.0,M,,*66
$GPGSA,A,3,01,02,03,04,05,06,07,08,09,10,11,12,1.0,1.0,1.0*30
$GPRMC,172242.656,A,4852.125,N,00220.808,E,023.3,276.2,220518,000.0,W*7D
$GPGGA,172243.656,4852.126,N,00220.799,E,1,12,1.0,0.0,M,0.0,M,,*63
$GPGSA,A,3,01,02,03,04,05,06,07,08,09,10,11,12,1.0,1.0,1.0*30
$GPRMC,172243.656,A,4852.126,N,00220.799,E,023.3,276.2,220518,000.0,W*78
$GPGGA,172244.656,4852.127,N,00220.789,E,1,12,1.0,0.0,M,0.0,M,,*64
$GPGSA,A,3,01,02,03,04,05,06,07,08,09,10,11,12,1.0,1.0,1.0*30
$GPRMC,172244.656,A,4852.127,N,00220.789,E,023.3,276.2,220518,000.0,W*7F
$GPGGA,172245.656,4852.128,N,00220.779,E,1,12,1.0,0.0,M,0.0,M,,*65
$GPGSA,A,3,01,02,03,04,05,06,07,08,09,10,11,12,1.0,1.0,1.0*30
$GPRMC,172245.656,A,4852.128,N,00220.779,E,023.3,276.2,220518,000.0,W*7E
$GPGGA,172246.656,4852.129,N,00220.770,E,1,12,1.0,0.0,M,0.0,M,,*6E
$GPGSA,A,3,01,02,03,04,05,06,07,08,09,10,11,12,1.0,1.0,1.0*30
$GPRMC,172246.656,A,4852.129,N,00220.770,E,023.3,276.2,220518,000.0,W*75
$GPGGA,172247.656,4852.130,N,00220.760,E,1,12,1.0,0.0,M,0.0,M,,*66
$GPGSA,A,3,01,02,03,04,05,06,07,08,09,10,11,12,1.0,1.0,1.0*30
$GPRMC,172247.656,A,4852.130,N,00220.760,E,023.3,276.2,220518,000.0,W*7D
$GPGGA,172248.656,4852.131,N,00220.750,E,1,12,1.0,0.0,M,0.0,M,,*6B
$GPGSA,A,3,01,02,03,04,05,06,07,08,09,10,11,12,1.0,1.0,1.0*30
$GPRMC,172248.656,A,4852.131,N,00220.750,E,023.3,276.2,220518,000.0,W*70
$GPGGA,172249.656,4852.132,N,00220.740,E,1,12,1.0,0.0,M,0.0,M,,*68
$GPGSA,A,3,01,02,03,04,05,06,07,08,09,10,11,12,1.0,1.0,1.0*30
$GPRMC,172249.656,A,4852.132,N,00220.740,E,023.3,276.2,220518,000.0,W*73
$GPGGA,172250.656,4852.133,N,00220.731,E,1,12,1.0,0.0,M,0.0,M,,*67
$GPGSA,A,3,01,02,03,04,05,06,07,08,09,10,11,12,1.0,1.0,1.0*30
$GPRMC,172250.656,A,4852.133,N,00220.731,E,023.3,276.2,220518,000.0,W*7C
$GPGGA,172251.656,4852.134,N,00220.721,E,1,12,1.0,0.0,M,0.0,M,,*60
$GPGSA,A,3,01,02,03,04,05,06,07,08,09,10,11,12,1.0,1.0,1.0*30
$GPRMC,172251.656,A,4852.134,N,00220.721,E,023.3,276.2,220518,000.0,W*7B
$GPGGA,172252.656,4852.135,N,00220.711,E,1,12,1.0,0.0,M,0.0,M,,*61
$GPGSA,A,3,01,02,03,04,05,06,07,08,09,10,11,12,1.0,1.0,1.0*30
$GPRMC,172252.656,A,4852.135,N,00220.711,E,023.3,276.2,220518,000.0,W*7A
$GPGGA,172253.656,4852.136,N,00220.702,E,1,12,1.0,0.0,M,0.0,M,,*61
$GPGSA,A,3,01,02,03,04,05,06,07,08,09,10,11,12,1.0,1.0,1.0*30
$GPRMC,172253.656,A,4852.136,N,00220.702,E,023.3,276.2,220518,000.0,W*7A
$GPGGA,172254.656,4852.137,N,00220.692,E,1,12,1.0,0.0,M,0.0,M,,*6F
$GPGSA,A,3,01,02,03,04,05,06,07,08,09,10,11,12,1.0,1.0,1.0*30
$GPRMC,172254.656,A,4852.137,N,00220.692,E,023.3,276.2,220518,000.0,W*74
$GPGGA,172255.656,4852.138,N,00220.682,E,1,12,1.0,0.0,M,0.0,M,,*60
$GPGSA,A,3,01,02,03,04,05,06,07,08,09,10,11,12,1.0,1.0,1.0*30
$GPRMC,172255.656,A,4852.138,N,00220.682,E,023.3,276.2,220518,000.0,W*7B
$GPGGA,172256.656,4852.140,N,00220.672,E,1,12,1.0,0.0,M,0.0,M,,*63
$GPGSA,A,3,01,02,03,04,05,06,07,08,09,10,11,12,1.0,1.0,1.0*30
$GPRMC,172256.656,A,4852.140,N,00220.672,E,023.3,276.2,220518,000.0,W*78
$GPGGA,172257.656,4852.141,N,00220.663,E,1,12,1.0,0.0,M,0.0,M,,*63
$GPGSA,A,3,01,02,03,04,05,06,07,08,09,10,11,12,1.0,1.0,1.0*30
$GPRMC,172257.656,A,4852.141,N,00220.663,E,023.3,276.2,220518,000.0,W*78
$GPGGA,172258.656,4852.142,N,00220.653,E,1,12,1.0,0.0,M,0.0,M,,*6C
$GPGSA,A,3,01,02,03,04,05,06,07,08,09,10,11,12,1.0,1.0,1.0*30
$GPRMC,172258.656,A,4852.142,N,00220.653,E,023.3,276.2,220518,000.0,W*77
$GPGGA,172259.656,4852.143,N,00220.643,E,1,12,1.0,0.0,M,0.0,M,,*6D
$GPGSA,A,3,01,02,03,04,05,06,07,08,09,10,11,12,1.0,1.0,1.0*30
$GPRMC,172259.656,A,4852.143,N,00220.643,E,023.3,276.2,220518,000.0,W*76
$GPGGA,172300.656,4852.144,N,00220.634,E,1,12,1.0,0.0,M,0.0,M,,*67
$GPGSA,A,3,01,02,03,04,05,06,07,08,09,10,11,12,1.0,1.0,1.0*30
$GPRMC,172300.656,A,4852.144,N,00220.634,E,023.3,276.2,220518,000.0,W*7C
$GPGGA,172301.656,4852.145,N,00220.624,E,1,12,1.0,0.0,M,0.0,M,,*66
$GPGSA,A,3,01,02,03,04,05,06,07,08,09,10,11,12,1.0,1.0,1.0*30
$GPRMC,172301.656,A,4852.145,N,00220.624,E,023.3,276.2,220518,000.0,W*7D
$GPGGA,172302.656,4852.146,N,00220.614,E,1,12,1.0,0.0,M,0.0,M,,*65
$GPGSA,A,3,01,02,03,04,05,06,07,08,09,10,11,12,1.0,1.0,1.0*30
$GPRMC,172302.656,A,4852.146,N,00220.614,E,023.3,276.2,220518,000.0,W*7E
$GPGGA,172303.656,4852.147,N,00220.604,E,1,12,1.0,0.0,M,0.0,M,,*64
$GPGSA,A,3,01,02,03,04,05,06,07,08,09,10,11,12,1.0,1.0,1.0*30
$GPRMC,172303.656,A,4852.147,N,00220.604,E,023.3,276.2,220518,000.0,W*7F
$GPGGA,172304.656,4852.148,N,00220.595,E,1,12,1.0,0.0,M,0.0,M,,*67
$GPGSA,A,3,01,02,03,04,05,06,07,08,09,10,11,12,1.0,1.0,1.0*30
$GPRMC,172304.656,A,4852.148,N,00220.595,E,023.3,276.2,220518,000.0,W*7C
$GPGGA,172305.656,4852.149,N,00220.585,E,1,12,1.0,0.0,M,0.0,M,,*66
$GPGSA,A,3,01,02,03,04,05,06,07,08,09,10,11,12,1.0,1.0,1.0*30
$GPRMC,172305.656,A,4852.149,N,00220.585,E,023.3,276.2,220518,000.0,W*7D
$GPGGA,172306.656,4852.150,N,00220.575,E,1,12,1.0,0.0,M,0.0,M,,*62
$GPGSA,A,3,01,02,03,04,05,06,07,08,09,10,11,12,1.0,1.0,1.0*30
$GPRMC,172306.656,A,4852.150,N,00220.575,E,023.3,276.2,220518,000.0,W*79
$GPGGA,172307.656,4852.151,N,00220.566,E,1,12,1.0,0.0,M,0.0,M,,*60
$GPGSA,A,3,01,02,03,04,05,06,07,08,09,10,11,12,1.0,1.0,1.0*30
$GPRMC,172307.656,A,4852.151,N,00220.566,E,023.3,276.2,220518,000.0,W*7B
$GPGGA,172308.656,4852.152,N,00220.556,E,1,12,1.0,0.0,M,0.0,M,,*6F
$GPGSA,A,3,01,02,03,04,05,06,07,08,09,10,11,12,1.0,1.0,1.0*30
$GPRMC,172308.656,A,4852.152,N,00220.556,E,023.3,276.2,220518,000.0,W*74
$GPGGA,172309.656,4852.153,N,00220.546,E,1,12,1.0,0.0,M,0.0,M,,*6E
$GPGSA,A,3,01,02,03,04,05,06,07,08,09,10,11,12,1.0,1.0,1.0*30
$GPRMC,172309.656,A,4852.153,N,00220.546,E,023.3,276.2,220518,000.0,W*75
$GPGGA,172310.656,4852.154,N,00220.536,E,1,12,1.0,0.0,M,0.0,M,,*66
$GPGSA,A,3,01,02,03,04,05,06,07,08,09,10,11,12,1.0,1.0,1.0*30
$GPRMC,172310.656,A,4852.154,N,00220.536,E,023.3,276.2,220518,000.0,W*7D
$GPGGA,172311.656,4852.155,N,00220.527,E,1,12,1.0,0.0,M,0.0,M,,*66
$GPGSA,A,3,01,02,03,04,05,06,07,08,09,10,11,12,1.0,1.0,1.0*30
$GPRMC,172311.656,A,4852.155,N,00220.527,E,023.3,276.2,220518,000.0,W*7D
$GPGGA,172312.656,4852.156,N,00220.517,E,1,12,1.0,0.0,M,0.0,M,,*65
$GPGSA,A,3,01,02,03,04,05,06,07,08,09,10,11,12,1.0,1.0,1.0*30
$GPRMC,172312.656,A,4852.156,N,00220.517,E,023.3,276.2,220518,000.0,W*7E
$GPGGA,172313.656,4852.157,N,00220.507,E,1,12,1.0,0.0,M,0.0,M,,*64
$GPGSA,A,3,01,02,03,04,05,06,07,08,09,10,11,12,1.0,1.0,1.0*30
$GPRMC,172313.656,A,4852.157,N,00220.507,E,023.3,276.2,220518,000.0,W*7F
$GPGGA,172314.656,4852.158,N,00220.498,E,1,12,1.0,0.0,M,0.0,M,,*6B
$GPGSA,A,3,01,02,03,04,05,06,07,08,09,10,11,12,1.0,1.0,1.0*30
$GPRMC,172314.656,A,4852.158,N,00220.498,E,023.3,276.2,220518,000.0,W*70
$GPGGA,172315.656,4852.159,N,00220.488,E,1,12,1.0,0.0,M,0.0,M,,*6A
$GPGSA,A,3,01,02,03,04,05,06,07,08,09,10,11,12,1.0,1.0,1.0*30
$GPRMC,172315.656,A,4852.159,N,00220.488,E,023.3,276.2,220518,000.0,W*71
$GPGGA,172316.656,4852.160,N,00220.478,E,1,12,1.0,0.0,M,0.0,M,,*6C
$GPGSA,A,3,01,02,03,04,05,06,07,08,09,10,11,12,1.0,1.0,1.0*30
$GPRMC,172316.656,A,4852.160,N,00220.478,E,023.3,276.2,220518,000.0,W*77
$GPGGA,172317.656,4852.162,N,00220.468,E,1,12,1.0,0.0,M,0.0,M,,*6E
$GPGSA,A,3,01,02,03,04,05,06,07,08,09,10,11,12,1.0,1.0,1.0*30
$GPRMC,172317.656,A,4852.162,N,00220.468,E,023.3,276.2,220518,000.0,W*75
$GPGGA,172318.656,4852.163,N,00220.459,E,1,12,1.0,0.0,M,0.0,M,,*62
$GPGSA,A,3,01,02,03,04,05,06,07,08,09,10,11,12,1.0,1.0,1.0*30
$GPRMC,172318.656,A,4852.163,N,00220.459,E,023.3,276.2,220518,000.0,W*79
$GPGGA,172319.656,4852.164,N,00220.449,E,1,12,1.0,0.0,M,0.0,M,,*65
$GPGSA,A,3,01,02,03,04,05,06,07,08,09,10,11,12,1.0,1.0,1.0*30
$GPRMC,172319.656,A,4852.164,N,00220.449,E,023.3,276.2,220518,000.0,W*7E
$GPGGA,172320.656,4852.165,N,00220.439,E,1,12,1.0,0.0,M,0.0,M,,*69
$GPGSA,A,3,01,02,03,04,05,06,07,08,09,10,11,12,1.0,1.0,1.0*30
$GPRMC,172320.656,A,4852.165,N,00220.439,E,023.3,276.2,220518,000.0,W*72
$GPGGA,172321.656,4852.166,N,00220.430,E,1,12,1.0,0.0,M,0.0,M,,*62
$GPGSA,A,3,01,02,03,04,05,06,07,08,09,10,11,12,1.0,1.0,1.0*30
$GPRMC,172321.656,A,4852.166,N,00220.430,E,023.3,276.2,220518,000.0,W*79
$GPGGA,172322.656,4852.167,N,00220.420,E,1,12,1.0,0.0,M,0.0,M,,*61
$GPGSA,A,3,01,02,03,04,05,06,07,08,09,10,11,12,1.0,1.0,1.0*30
$GPRMC,172322.656,A,4852.167,N,00220.420,E,023.3,276.2,220518,000.0,W*7A
$GPGGA,172323.656,4852.168,N,00220.410,E,1,12,1.0,0.0,M,0.0,M,,*6C
$GPGSA,A,3,01,02,03,04,05,06,07,08,09,10,11,12,1.0,1.0,1.0*30
$GPRMC,172323.656,A,4852.168,N,00220.410,E,023.3,276.2,220518,000.0,W*77
$GPGGA,172324.656,4852.169,N,00220.400,E,1,12,1.0,0.0,M,0.0,M,,*6B
$GPGSA,A,3,01,02,03,04,05,06,07,08,09,10,11,12,1.0,1.0,1.0*30
$GPRMC,172324.656,A,4852.169,N,00220.400,E,023.3,276.2,220518,000.0,W*70
$GPGGA,172325.656,4852.170,N,00220.391,E,1,12,1.0,0.0,M,0.0,M,,*6D
$GPGSA,A,3,01,02,03,04,05,06,07,08,09,10,11,12,1.0,1.0,1.0*30
$GPRMC,172325.656,A,4852.170,N,00220.391,E,023.3,276.2,220518,000.0,W*76
$GPGGA,172326.656,4852.171,N,00220.381,E,1,12,1.0,0.0,M,0.0,M,,*6E
$GPGSA,A,3,01,02,03,04,05,06,07,08,09,10,11,12,1.0,1.0,1.0*30
$GPRMC,172326.656,A,4852.171,N,00220.381,E,023.3,276.2,220518,000.0,W*75
$GPGGA,172327.656,4852.172,N,00220.371,E,1,12,1.0,0.0,M,0.0,M,,*63
$GPGSA,A,3,01,02,03,04,05,06,07,08,09,10,11,12,1.0,1.0,1.0*30
$GPRMC,172327.656,A,4852.172,N,00220.371,E,023.3,276.2,220518,000.0,W*78
$GPGGA,172328.656,4852.173,N,00220.362,E,1,12,1.0,0.0,M,0.0,M,,*6F
$GPGSA,A,3,01,02,03,04,05,06,07,08,09,10,11,12,1.0,1.0,1.0*30
$GPRMC,172328.656,A,4852.173,N,00220.362,E,023.3,276.2,220518,000.0,W*74
$GPGGA,172329.656,4852.174,N,00220.352,E,1,12,1.0,0.0,M,0.0,M,,*6A
$GPGSA,A,3,01,02,03,04,05,06,07,08,09,10,11,12,1.0,1.0,1.0*30
$GPRMC,172329.656,A,4852.174,N,00220.352,E,023.3,276.2,220518,000.0,W*71
$GPGGA,172330.656,4852.175,N,00220.342,E,1,12,1.0,0.0,M,0.0,M,,*62
$GPGSA,A,3,01,02,03,04,05,06,07,08,09,10,11,12,1.0,1.0,1.0*30
$GPRMC,172330.656,A,4852.175,N,00220.342,E,023.3,276.2,220518,000.0,W*79
$GPGGA,172331.656,4852.176,N,00220.332,E,1,12,1.0,0.0,M,0.0,M,,*67
$GPGSA,A,3,01,02,03,04,05,06,07,08,09,10,11,12,1.0,1.0,1.0*30
$GPRMC,172331.656,A,4852.176,N,00220.332,E,023.3,276.2,220518,000.0,W*7C
$GPGGA,172332.656,4852.177,N,00220.323,E,1,12,1.0,0.0,M,0.0,M,,*65
$GPGSA,A,3,01,02,03,04,05,06,07,08,09,10,11,12,1.0,1.0,1.0*30
$GPRMC,172332.656,A,4852.177,N,00220.323,E,023.3,276.2,220518,000.0,W*7E
$GPGGA,172333.656,4852.178,N,00220.313,E,1,12,1.0,0.0,M,0.0,M,,*68
$GPGSA,A,3,01,02,03,04,05,06,07,08,09,10,11,12,1.0,1.0,1.0*30
$GPRMC,172333.656,A,4852.178,N,00220.313,E,023.3,276.2,220518,000.0,W*73
$GPGGA,172334.656,4852.179,N,00220.303,E,1,12,1.0,0.0,M,0.0,M,,*6F
$GPGSA,A,3,01,02,03,04,05,06,07,08,09,10,11,12,1.0,1.0,1.0*30
$GPRMC,172334.656,A,4852.179,N,00220.303,E,023.3,276.2,220518,000.0,W*74
$GPGGA,172335.656,4852.180,N,00220.294,E,1,12,1.0,0.0,M,0.0,M,,*67
$GPGSA,A,3,01,02,03,04,05,06,07,08,09,10,11,12,1.0,1.0,1.0*30
$GPRMC,172335.656,A,4852.180,N,00220.294,E,023.3,276.2,220518,000.0,W*7C
$GPGGA,172336.656,4852.181,N,00220.284,E,1,12,1.0,0.0,M,0.0,M,,*64
$GPGSA,A,3,01,02,03,04,05,06,07,08,09,10,11,12,1.0,1.0,1.0*30
$GPRMC,172336.656,A,4852.181,N,00220.284,E,023.3,276.2,220518,000.0,W*7F
$GPGGA,172337.656,4852.182,N,00220.274,E,1,12,1.0,0.0,M,0.0,M,,*69
$GPGSA,A,3,01,02,03,04,05,06,07,08,09,10,11,12,1.0,1.0,1.0*30
$GPRMC,172337.656,A,4852.182,N,00220.274,E,023.3,276.2,220518,000.0,W*72
$GPGGA,172338.656,4852.184,N,00220.264,E,1,12,1.0,0.0,M,0.0,M,,*61
$GPGSA,A,3,01,02,03,04,05,06,07,08,09,10,11,12,1.0,1.0,1.0*30
$GPRMC,172338.656,A,4852.184,N,00220.264,E,023.3,252.7,220518,000.0,W*79
$GPGGA,172339.656,4852.181,N,00220.256,E,1,12,1.0,0.0,M,0.0,M,,*64
$GPGSA,A,3,01,02,03,04,05,06,07,08,09,10,11,12,1.0,1.0,1.0*30
$GPRMC,172339.656,A,4852.181,N,00220.256,E,023.3,252.7,220518,000.0,W*7C
$GPGGA,172340.656,4852.178,N,00220.247,E,1,12,1.0,0.0,M,0.0,M,,*6C
$GPGSA,A,3,01,02,03,04,05,06,07,08,09,10,11,12,1.0,1.0,1.0*30
$GPRMC,172340.656,A,4852.178,N,00220.247,E,023.3,252.7,220518,000.0,W*74
$GPGGA,172341.656,4852.175,N,00220.238,E,1,12,1.0,0.0,M,0.0,M,,*68
$GPGSA,A,3,01,02,03,04,05,06,07,08,09,10,11,12,1.0,1.0,1.0*30
$GPRMC,172341.656,A,4852.175,N,00220.238,E,023.3,252.7,220518,000.0,W*70
$GPGGA,172342.656,4852.172,N,00220.229,E,1,12,1.0,0.0,M,0.0,M,,*6C
$GPGSA,A,3,01,02,03,04,05,06,07,08,09,10,11,12,1.0,1.0,1.0*30
$GPRMC,172342.656,A,4852.172,N,00220.229,E,023.3,252.7,220518,000.0,W*74
$GPGGA,172343.656,4852.170,N,00220.220,E,1,12,1.0,0.0,M,0.0,M,,*66
$GPGSA,A,3,01,02,03,04,05,06,07,08,09,10,11,12,1.0,1.0,1.0*30
$GPRMC,172343.656,A,4852.170,N,00220.220,E,023.3,252.7,220518,000.0,W*7E
$GPGGA,172344.656,4852.167,N,00220.211,E,1,12,1.0,0.0,M,0.0,M,,*65
$GPGSA,A,3,01,02,03,04,05,06,07,08,09,10,11,12,1.0,1.0,1.0*30
$GPRMC,172344.656,A,4852.167,N,00220.211,E,023.3,252.7,220518,000.0,W*7D
$GPGGA,172345.656,4852.164,N,00220.202,E,1,12,1.0,0.0,M,0.0,M,,*65
$GPGSA,A,3,01,02,03,04,05,06,07,08,09,10,11,12,1.0,1.0,1.0*30
$GPRMC,172345.656,A,4852.164,N,00220.202,E,023.3,252.7,220518,000.0,W*7D
$GPGGA,172346.656,4852.161,N,00220.193,E,1,12,1.0,0.0,M,0.0,M,,*68
$GPGSA,A,3,01,02,03,04,05,06,07,08,09,10,11,12,1.0,1.0,1.0*30
$GPRMC,172346.656,A,4852.161,N,00220.193,E,023.3,252.7,220518,000.0,W*70
$GPGGA,172347.656,4852.159,N,00220.184,E,1,12,1.0,0.0,M,0.0,M,,*64
$GPGSA,A,3,01,02,03,04,05,06,07,08,09,10,11,12,1.0,1.0,1.0*30
$GPRMC,172347.656,A,4852.159,N,00220.184,E,023.3,252.7,220518,000.0,W*7C
$GPGGA,172348.656,4852.156,N,00220.175,E,1,12,1.0,0.0,M,0.0,M,,*6A
$GPGSA,A,3,01,02,03,04,05,06,07,08,09,10,11,12,1.0,1.0,1.0*30
$GPRMC,172348.656,A,4852.156,N,00220.175,E,023.3,252.7,220518,000.0,W*72
$GPGGA,172349.656,4852.153,N,00220.166,E,1,12,1.0,0.0,M,0.0,M,,*6C
$GPGSA,A,3,01,02,03,04,05,06,07,08,09,10,11,12,1.0,1.0,1.0*30
$GPRMC,172349.656,A,4852.153,N,00220.166,E,023.3,252.7,220518,000.0,W*74
$GPGGA,172350.656,4852.150,N,00220.158,E,1,12,1.0,0.0,M,0.0,M,,*6A
$GPGSA,A,3,01,02,03,04,05,06,07,08,09,10,11,12,1.0,1.0,1.0*30
$GPRMC,172350.656,A,4852.150,N,00220.158,E,023.3,252.7,220518,000.0,W*72
$GPGGA,172351.656,4852.148,N,00220.149,E,1,12,1.0,0.0,M,0.0,M,,*62
$GPGSA,A,3,01,02,03,04,05,06,07,08,09,10,11,12,1.0,1.0,1.0*30
$GPRMC,172351.656,A,4852.148,N,00220.149,E,023.3,252.7,220518,000.0,W*7A
$GPGGA,172352.656,4852.145,N,00220.140,E,1,12,1.0,0.0,M,0.0,M,,*65
$GPGSA,A,3,01,02,03,04,05,06,07,08,09,10,11,12,1.0,1.0,1.0*30
$GPRMC,172352.656,A,4852.145,N,00220.140,E,023.3,252.7,220518,000.0,W*7D
$GPGGA,172353.656,4852.142,N,00220.131,E,1,12,1.0,0.0,M,0.0,M,,*65
$GPGSA,A,3,01,02,03,04,05,06,07,08,09,10,11,12,1.0,1.0,1.0*30
$GPRMC,172353.656,A,4852.142,N,00220.131,E,023.3,252.7,220518,000.0,W*7D
$GPGGA,172354.656,4852.139,N,00220.122,E,1,12,1.0,0.0,M,0.0,M,,*6C
$GPGSA,A,3,01,02,03,04,05,06,07,08,09,10,11,12,1.0,1.0,1.0*30
$GPRMC,172354.656,A,4852.139,N,00220.122,E,023.3,252.7,220518,000.0,W*74
$GPGGA,172355.656,4852.137,N,00220.113,E,1,12,1.0,0.0,M,0.0,M,,*61
$GPGSA,A,3,01,02,03,04,05,06,07,08,09,10,11,12,1.0,1.0,1.0*30
$GPRMC,172355.656,A,4852.137,N,00220.113,E,023.3,252.7,220518,000.0,W*79
$GPGGA,172356.656,4852.134,N,00220.104,E,1,12,1.0,0.0,M,0.0,M,,*67
$GPGSA,A,3,01,02,03,04,05,06,07,08,09,10,11,12,1.0,1.0,1.0*30
$GPRMC,172356.656,A,4852.134,N,00220.104,E,023.3,252.7,220518,000.0,W*7F
